"","Country","City","AccentCity","Region","Population","Latitude","Longitude"
"658241","co","20 de julio","20 de Julio","34",NA,4.576244,-74.089281
"658242","co","20 de junio","20 de Junio","21",NA,8.040556,-72.6225
"658243","co","4 esquinas","4 Esquinas","20",NA,1.114268,-77.433143
"658244","co","abarca","Abarca","38",NA,10.766667,-74.166667
"658245","co","abejero","Abejero","24",NA,5.157098,-75.906734
"658246","co","abejorral","Abejorral","02",7360,5.789281,-75.427252
"658247","co","abisinia","Abisinia","01",NA,-1.383333,-72.2
"658248","co","abra","Abra","17",NA,11.30987,-72.899242
"658249","co","abrahan asprilla","Abrahán Asprilla","11",NA,5,-77.166667
"658250","co","abras","Abras","17",NA,11.30987,-72.899242
"658251","co","a bravo","A Bravo","02",NA,8.611342,-76.443971
"658252","co","abre el ojo","Abre El Ojo","17",NA,10.928333,-72.6675
"658253","co","abrego","Abrego","09",NA,2.366667,-76.716667
"658254","co","abrego","Ábrego","21",10823,8.080647,-73.220543
"658255","co","abrego numero dos","Abrego Número Dos","29",NA,4.224671,-75.951616
"658256","co","abriaqui","Abriaquí","02",1281,6.631477,-76.064437
"658257","co","abriojo","Abriojo","02",NA,6.916667,-75.831389
"658258","co","abuyama","Abuyama","03",NA,6.876111,-70.585833
"658259","co","acacias","Acacías","19",40628,3.986946,-73.757971
"658260","co","acala","Acalá","29",NA,4.674722,-75.7825
"658261","co","acandi","Acandí","11",4840,8.506334,-77.277839
"658262","co","acanti","Acanti","11",NA,8.506334,-77.277839
"658263","co","acapulco","Acapulco","03",NA,6.475564,-71.712911
"658264","co","acapulco","Acapulco","08",NA,1.606259,-75.639021
"658265","co","acapulco","Acapulco","19",NA,4.410315,-72.253385
"658266","co","acapulco","Acapulco","32",NA,5.062206,-72.27071
"658267","co","acapulco","Acapulco","37",NA,5.39739,-74.862092
"658268","co","acaricuara","Acaricuará","30",430,0.7,-70.233333
"658269","co","acayali","Acayali","08",NA,1.067501,-73.37824
"658270","co","aceite","Aceite","17",NA,12.093792,-71.50466
"658271","co","aceituno","Aceituno","28",NA,3.9175,-75.18
"658272","co","acequia","Acequía","29",NA,3.6375,-76.401111
"658273","co","acevedo","Acevedo","09",NA,1.754223,-76.888115
"658274","co","acevedo","Acevedo","16",4451,1.836055,-75.854985
"658275","co","acevedo y gomez","Acevedo y Gómez","28",NA,3.68,-75.064722
"658276","co","achi","Achí","35",8434,8.568178,-74.554052
"658277","co","achiote","Achiote","33",NA,5.50523,-74.354871
"658278","co","achotal","Achotal","04",NA,10.7,-74.85
"658279","co","achotal","Achotal","20",NA,1.483333,-78.716667
"658280","co","achupallas","Achupallas","20",NA,1.699642,-76.99008
"658281","co","aco","Aco","28",NA,3.747222,-74.813889
"658282","co","acon","Acón","20",NA,1.533333,-78.9
"658283","co","aco nuevo","Aco Nuevo","28",NA,3.74871,-74.81118
"658284","co","acordeon","Acordeón","38",NA,9.523956,-74.414047
"658285","co","acoso","Acosó","11",NA,5.096564,-76.561818
"658286","co","acosta","Acosta","12",NA,8.561133,-75.545597
"658287","co","acuapal","Acuapal","33",NA,5.422459,-74.50783
"658288","co","acuata","Acuatá","33",NA,4.477443,-74.648858
"658289","co","acuna","Acuña","26",NA,6.666667,-74.266667
"658290","co","adaluz","Adaluz","17",NA,11.250385,-72.221929
"658291","co","adan","Adán","10",NA,10.183333,-73.9
"658292","co","adelaide","Adelaide","28",NA,3.921111,-75.144167
"658293","co","admirable","Admirable","27",NA,9.434436,-75.003493
"658294","co","adolfo rios","Adolfo Ríos","33",NA,4.724365,-73.900268
"658295","co","adoretes","Adoretes","09",NA,1.840542,-77.17688
"658296","co","adriana","Adriana","10",NA,9.301944,-73.913611
"658297","co","adriano potes","Adriano Potes","11",NA,5,-77.066667
"658298","co","adriene morano","Adriene Morano","29",NA,4.2775,-76.303889
"658299","co","aduriameina","Aduriameina","38",NA,10.65181,-73.638892
"658300","co","adurimeina","Adurimeina","38",NA,10.65181,-73.638892
"658301","co","aflohera","Aflohera","12",NA,8.766667,-76.116667
"658302","co","africa","Africa","37",NA,5.402827,-74.867176
"658303","co","aganche","Aganche","09",NA,2.883333,-76.666667
"658304","co","agarrate","Agárrate","12",NA,8.714166,-75.542397
"658305","co","agrado","Agrado","16",4531,2.257254,-75.771421
"658306","co","agregados siberia","Agregados Siberia","34",NA,4.742767,-74.136743
"658307","co","agriasdulces","Agriasdulces","38",NA,10.166667,-74.05
"658308","co","agro florida","Agro Florida","34",NA,4.737775,-74.137258
"658309","co","agroyaco","Agroyaco","20",NA,1.570719,-77.435014
"658310","co","agrumito","Agrumito","03",NA,6.471379,-70.539085
"658311","co","agua azul","Agua Azul","32",NA,5.172819,-72.547058
"658312","co","agua blanca","Agua Blanca","09",NA,2.675735,-75.937564
"658313","co","agua blanca","Agua Blanca","10",NA,10.223271,-73.491304
"658314","co","aguablanca","Aguablanca","10",NA,8.236997,-73.52446
"658315","co","agua blanca","Agua Blanca","10",NA,8.421289,-73.682141
"658316","co","aguablanca","Aguablanca","19",NA,3.55,-74.392778
"658317","co","aguablanca","Aguablanca","21",NA,8.035556,-72.950556
"658318","co","agua blanca","Agua Blanca","21",NA,8.403358,-73.060101
"658319","co","agua blanca","Agua Blanca","22",NA,-0.037858,-75.199708
"658320","co","agua blanca","Agua Blanca","26",NA,6.333333,-73.666667
"658321","co","aguablanca","Aguablanca","26",NA,6.388692,-73.377732
"658322","co","agua blanca","Agua Blanca","26",NA,6.686389,-73.793056
"658323","co","aguablanca","Aguablanca","26",NA,7.366667,-73.155278
"658324","co","aguablanca","Aguablanca","27",NA,8.714707,-74.741854
"658325","co","aguablanca","Aguablanca","29",NA,3.45104,-76.515076
"658326","co","aguablanca","Aguablanca","36",NA,4.976667,-73.256667
"658327","co","agua blanca","Agua Blanca","36",NA,5.516109,-72.487054
"658328","co","aguabonita","Aguabonita","02",NA,5.695337,-75.628056
"658329","co","aguabonita","Aguabonita","14",NA,2.579625,-72.588927
"658330","co","agua bonita","Agua Bonita","14",NA,2.579625,-72.588927
"658331","co","agua bonita","Agua Bonita","14",NA,2.588108,-72.602403
"658332","co","agua bonita","Agua Bonita","16",NA,2.139444,-75.913611
"658333","co","agua bonita","Agua Bonita","26",NA,6.623333,-73.831389
"658334","co","agua bonita","Agua Bonita","28",NA,3.789444,-75.580833
"658335","co","agua bonita","Agua Bonita","37",NA,5.184632,-75.127002
"658336","co","aguabuena","Aguabuena","26",NA,6.394039,-73.259321
"658337","co","aguacaliente","Aguacaliente","08",NA,1.381118,-75.630307
"658338","co","aguacaliente","Aguacaliente","16",NA,2.135556,-75.67
"658339","co","agua caliente","Agua Caliente","21",NA,8.416667,-72.5
"658340","co","aguacaliente","Aguacaliente","26",NA,7.498333,-73.216667
"658341","co","agua caliente","Agua Caliente","28",NA,3.293056,-75.032778
"658342","co","aguacaliente","Aguacaliente","28",NA,4.475556,-75.401667
"658343","co","aguacaliente","Aguacaliente","36",NA,4.830807,-73.208864
"658344","co","aguacatal","Aguacatal","02",NA,7.102596,-75.405245
"658345","co","aguacatal","Aguacatal","10",NA,9.10084,-73.64685
"658346","co","aguacatal","Aguacatal","27",NA,9.358379,-75.311293
"658347","co","aguacate","Aguacate","02",NA,5.835527,-75.506399
"658348","co","aguacate","Aguacate","11",NA,8.619775,-77.330007
"658349","co","aguacate","Aguacate","20",NA,1.55,-78.033333
"658350","co","aguacate","Aguacate","27",NA,9.633333,-75.4
"658351","co","aguacate","Aguacate","37",NA,4.933333,-75.85
"658352","co","aguachica","Aguachica","10",73361,8.308442,-73.6166
"658353","co","aguacilla","Aguacilla","20",NA,1.583333,-77.016667
"658354","co","aguacillas","Aguacillas","20",NA,1.583333,-77.016667
"658355","co","agua clara","Agua Clara","09",NA,2.708096,-77.160157
"658356","co","aguaclara","Aguaclara","09",NA,2.295672,-77.767545
"658357","co","agua clara","Agua Clara","12",NA,8.487234,-75.313795
"658358","co","agua clara","Agua Clara","19",NA,4.063282,-73.021755
"658359","co","aguaclara","Aguaclara","20",NA,1.605833,-78.961111
"658360","co","aguaclara","Aguaclara","21",NA,8.23475,-72.426798
"658361","co","aguaclara","Aguaclara","29",NA,3.501111,-76.235556
"658362","co","agua clara","Agua Clara","29",NA,4.115833,-76.194444
"658363","co","aguaclara","Aguaclara","32",NA,4.748196,-72.997716
"658364","co","agua colorada","Agua Colorada","36",NA,5.735833,-74.096389
"658365","co","aguada","Aguada","14",NA,1.687426,-73.58343
"658366","co","aguada","Aguada","20",NA,1.132029,-77.37816
"658367","co","aguada","Aguada","32",NA,5.900929,-72.004085
"658368","co","aguada de caferino","Aguada de Caferino","26",NA,7.181865,-73.166003
"658369","co","aguada de garrapata","Aguada de Garrapata","38",NA,9.355026,-74.098627
"658370","co","aguada de pablo","Aguada de Pablo","04",NA,10.520372,-75.006197
"658371","co","aguadas","Aguadas","16",NA,1.923868,-76.292322
"658372","co","aguadas","Aguadas","37",19727,5.611612,-75.456235
"658373","co","agua de dios","Agua de Dios","26",NA,5.779722,-73.866111
"658374","co","agua de dios","Agua de Dios","33",10876,4.376478,-74.669952
"658375","co","agua de la virgen","Agua de La Virgen","21",NA,8.211389,-73.3925
"658376","co","agua de pablo","Agua de Pablo","04",NA,10.520372,-75.006197
"658377","co","agua de perro","Agua de Perro","33",NA,5.525,-74.260278
"658378","co","aguadita","Aguadita","02",NA,6.809722,-76.076667
"658379","co","aguadita","Aguadita","28",NA,5.141886,-75.114792
"658380","co","aguadita","Aguadita","37",NA,5.279526,-75.556356
"658381","co","aguaditas","Aguaditas","12",NA,8.769433,-75.514553
"658382","co","agua dulce","Agua Dulce","09",NA,2.793889,-77.6125
"658383","co","agua dulce","Agua Dulce","10",NA,10.633333,-73.433333
"658384","co","aguadulce","Aguadulce","12",NA,8.708749,-75.698126
"658385","co","aguadulce","Aguadulce","25",NA,13.35,-81.383333
"658386","co","aguadulce","Aguadulce","33",NA,4.267396,-74.252287
"658387","co","aguadulce","Aguadulce","38",NA,10.821944,-74.654722
"658388","co","aguaestrada","Aguaestrada","38",NA,9.167778,-73.991111
"658389","co","aguaflorida","Aguaflorida","27",NA,9.514323,-75.361427
"658390","co","aguafria","Aguafría","04",NA,10.75,-74.983333
"658391","co","aguafria","Aguafría","10",NA,9.456111,-73.587222
"658392","co","agua fria","Agua Fría","26",NA,5.83,-73.842778
"658393","co","agua fria","Agua Fría","35",NA,8.669087,-74.425867
"658394","co","agua fria","Agua Fría","36",NA,5.7725,-74.045278
"658395","co","aguafria","Aguafría","36",NA,6.029358,-73.432533
"658396","co","aguafria","Aguafría","38",NA,9.1,-74.029167
"658397","co","agua hedionda","Agua Hedionda","16",NA,2.126667,-75.6425
"658398","co","aguahedionda","Aguahedionda","16",NA,3.291944,-75.105556
"658399","co","agualinda","Agualinda","02",NA,6.321389,-74.609444
"658400","co","agua linda","Agua Linda","02",NA,6.337784,-75.607653
"658401","co","agualinda","Agualinda","02",NA,6.915833,-75.541944
"658402","co","agua linda","Agua Linda","03",NA,6.630754,-70.897045
"658403","co","agualinda","Agualinda","03",NA,6.985167,-71.890567
"658404","co","agua linda","Agua Linda","19",NA,2.737232,-72.904688
"658405","co","agualinda","Agualinda","21",NA,7.833333,-72.916667
"658406","co","agualinda","Agualinda","26",NA,7.155779,-73.34215
"658407","co","agualinda","Agualinda","32",NA,5.191329,-72.590676
"658408","co","agua linda","Agua Linda","36",NA,5.762222,-74.200833
"658409","co","agualinda","Agualinda","36",NA,6.033333,-74.456389
"658410","co","agualisa","Agualisa","33",NA,5.569444,-73.816667
"658411","co","aguamansa","Aguamansa","25",NA,13.333333,-81.366667
"658412","co","agua mona","Agua Mona","29",NA,3.85,-76.516667
"658413","co","aguamuerta","Aguamuerta","02",NA,6.324722,-74.504722
"658414","co","aguanegra","Aguanegra","08",NA,1.013042,-75.304412
"658415","co","agua negra","Agua Negra","08",NA,1.083678,-75.534588
"658416","co","aguanegra","Aguanegra","09",NA,2.745596,-76.787879
"658417","co","agua negra","Agua Negra","12",NA,8.812016,-75.812748
"658418","co","agua negra","Agua Negra","22",NA,0.99564,-75.948815
"658419","co","aguanegra","Aguanegra","22",NA,0.91643,-76.416549
"658420","co","aguanegra","Aguanegra","26",NA,6.264167,-74.449722
"658421","co","aguanegro","Aguanegro","36",NA,5.778889,-74.469167
"658422","co","aguanta-callao","Aguanta-Callao","21",NA,8.284722,-72.489444
"658423","co","agua padilla","Agua Padilla","12",NA,8.719494,-75.435294
"658424","co","aguasal","Aguasal","11",NA,5.464297,-76.138766
"658425","co","aguasblancas","Aguasblancas","10",NA,10.223271,-73.491304
"658426","co","aguas blancas","Aguas Blancas","10",NA,8.262469,-73.654113
"658427","co","aguas blancas","Aguas Blancas","26",NA,6.834792,-73.801341
"658428","co","aguas blancas","Aguas Blancas","27",NA,8.714707,-74.741854
"658429","co","aguasblancas","Aguasblancas","38",NA,9.716111,-74.502222
"658430","co","aguasbuenas","Aguasbuenas","38",NA,10.266667,-74.2
"658431","co","aguas claras","Aguas Claras","12",NA,8.470064,-75.444257
"658432","co","aguas claras","Aguas Claras","16",NA,3.187778,-74.807778
"658433","co","aguas claras","Aguas Claras","19",NA,2.674975,-72.753723
"658434","co","aguasclaras","Aguasclaras","21",NA,8.323283,-73.353284
"658435","co","aguas claras","Aguas Claras","26",NA,6.5741,-73.931706
"658436","co","aguas claras","Aguas Claras","29",NA,4.616667,-76.183333
"658437","co","aguas claras","Aguas Claras","31",NA,5.515152,-70.35138
"658438","co","aguas claras","Aguas Claras","33",NA,5.05,-73.933333
"658439","co","aguas frias","Aguas Frias","02",NA,6.266609,-75.516725
"658440","co","aguas frias","Aguas Frías","10",NA,9.247456,-73.884369
"658441","co","aguas frias","Aguas Frias","35",NA,10.406413,-75.391594
"658442","co","aguas lindas","Aguas Lindas","19",NA,4.068378,-73.105011
"658443","co","aguas lindas","Aguas Lindas","29",NA,4.425556,-76.328889
"658444","co","aguas negras","Aguas Negras","10",NA,7.833333,-73.616667
"658445","co","aguas negras","Aguas Negras","12",NA,8.812016,-75.812748
"658446","co","aguas negras","Aguas Negras","27",NA,9.690761,-75.495863
"658447","co","aguas prietas","Aguas Prietas","12",NA,8.652778,-76.175
"658448","co","aguas prietas","Aguas Prietas","35",NA,10.386111,-75.426389
"658449","co","agua sucia","Agua Sucia","26",NA,6.6,-72.683333
"658450","co","agua sucia","Agua Sucia","29",NA,3.276831,-76.581955
"658451","co","aguasvivas","Aguasvivas","04",NA,10.734461,-75.07238
"658452","co","aguas vivas","Aguas Vivas","12",NA,8.524089,-75.697771
"658453","co","aguasvivas","Aguasvivas","12",NA,8.851857,-76.109651
"658454","co","aguas vivas","Aguas Vivas","12",NA,8.854127,-75.558654
"658455","co","aguas vivas","Aguas Vivas","35",NA,10.043304,-75.079882
"658456","co","aguas vivas","Aguas Vivas","38",NA,9.777308,-74.664213
"658457","co","aguas vives","Aguas Vives","12",NA,8.851857,-76.109651
"658458","co","aguaverde","Aguaverde","31",NA,5.795304,-69.983914
"658459","co","agua verde","Agua Verde","32",NA,4.44686,-72.685266
"658460","co","aguaviva","Aguaviva","04",NA,10.734461,-75.07238
"658461","co","aguaviva","Aguaviva","12",NA,8.851857,-76.109651
"658462","co","aguaviva","Aguaviva","35",NA,10.083333,-75.016667
"658463","co","agua vives","Agua Vives","12",NA,8.851857,-76.109651
"658464","co","aguayo","Aguayo","28",NA,3.711389,-75.529444
"658465","co","aguazul","Aguazul","24",NA,4.876667,-75.648889
"658466","co","aguazul","Aguazul","32",15670,5.172819,-72.547058
"658467","co","aguila","Águila","02",NA,6.596667,-76.049167
"658468","co","aguila","Águila","12",NA,8.8,-76.2
"658469","co","aguila","Aguila","33",NA,4.746975,-73.492711
"658470","co","aguilandia","Aguilandia","19",NA,2.939899,-73.126065
"658471","co","aguilar","Aguilar","02",NA,6.764167,-75.970833
"658472","co","aguilar","Aguilar","27",NA,8.765759,-75.120548
"658473","co","aguilas","Águilas","26",NA,7.470556,-73.315833
"658474","co","aguillo","Aguillo","20",NA,1.5,-78.266667
"658475","co","aguirre","Aguirre","02",NA,6.597222,-75.686944
"658476","co","aguisi","Aguisi","26",NA,7.1,-73.65
"658477","co","aguita","Agüita","24",NA,5.3,-76.2
"658478","co","aguitas","Agüitas","24",NA,5.3,-76.2
"658479","co","agustina","Agustina","33",NA,5.666667,-74.65
"658480","co","agustin codazzi","Agustín Codazzi","10",51479,10.034087,-73.236111
"658481","co","agustin vivas","Agustín Vivas","11",NA,5.25,-76.933333
"658482","co","ahorca zorra","Ahorca Zorra","38",NA,10.504167,-74.628889
"658483","co","ahumada","Ahumada","20",NA,1.184198,-77.55041
"658484","co","ahumada grande","Ahumada Grande","20",NA,1.184198,-77.55041
"658485","co","ahuyama","Ahuyama","17",NA,11.858147,-72.291465
"658486","co","aicala","Aicalá","21",NA,8.091389,-72.383333
"658487","co","aichumahana","Aichumahana","17",NA,11.945278,-71.866667
"658488","co","ailanapaha","Aílanapaha","17",NA,11.908402,-71.735712
"658489","co","ailaparihi","Ailaparihi","17",NA,11.921836,-72.06112
"658490","co","aipe","Aipe","16",7964,3.222222,-75.236667
"658491","co","aipiruhu","Aipiruhu","17",NA,12.127429,-72.115993
"658492","co","aire libre","Aire Libre","35",NA,8.803918,-74.3852
"658493","co","airrainmaru","Áirrainmaru","17",NA,12.448482,-71.666781
"658494","co","ajaraiahuria","Ajaraiahuria","17",NA,11.570556,-72.508364
"658495","co","ajizales","Ajizales","33",NA,5.624167,-74.44
"658496","co","ajumana","Ajumana","17",NA,11.466326,-72.816053
"658497","co","alamos","Álamos","02",NA,6.266667,-75.583333
"658498","co","alamos","Alamos","34",NA,4.698391,-74.128235
"658499","co","alban","Albán","20",NA,1.105404,-77.569673
"658500","co","alban","Albán","29",NA,4.779843,-76.170167
"658501","co","alban","Albán","33",1684,4.876608,-74.437683
"658502","co","albania","Albania","08",4160,1.328661,-75.878235
"658503","co","albania","Albania","09",NA,2.093219,-76.805433
"658504","co","albania","Albania","10",NA,9.555833,-73.901111
"658505","co","albania","Albania","16",NA,2.273611,-75.7075
"658506","co","albania","Albania","17",6365,11.160987,-72.592385
"658507","co","albania","Albania","19",NA,4.106118,-73.553656
"658508","co","albania","Albania","20",NA,1.675278,-78.764167
"658509","co","albania","Albania","23",NA,4.47239,-75.700891
"658510","co","albania","Albania","24",NA,5.406764,-75.915516
"658511","co","albania","Albania","26",810,5.761389,-73.917778
"658512","co","albania","Albania","27",NA,9.240507,-75.228222
"658513","co","albania","Albania","28",NA,3.339722,-75.021111
"658514","co","albania","Albania","33",NA,5.020774,-74.590137
"658515","co","albania","Albania","36",NA,5.6325,-73.855556
"658516","co","albania","Albania","38",NA,10.3,-74.15
"658517","co","albanio","Albanio","17",NA,11.160987,-72.592385
"658518","co","albergue","Albergue","36",NA,5.716667,-73.216667
"658519","co","alberto duran","Alberto Durán","21",NA,7.683333,-72.7
"658520","co","alberto lleras","Alberto Lleras","29",NA,3.87517,-77.063358
"658521","co","albornoz","Albornoz","04",NA,10.566667,-75.016667
"658522","co","albornoz","Albornoz","29",NA,3.826667,-76.374722
"658523","co","albornoz","Albornoz","35",NA,10.372222,-75.506667
"658524","co","albricias","Albricias","04",NA,10.55,-74.8
"658525","co","alcala","Alcalá","21",NA,8.091389,-72.383333
"658526","co","alcala","Alcalá","29",9135,4.674722,-75.7825
"658527","co","alcala","Alcalá","33",NA,5.097798,-74.169252
"658528","co","alcaldia mayor","Alcaldía Mayor","34",NA,4.599267,-74.07749
"658529","co","alcantarilla","Alcantarilla","20",NA,0.949094,-77.741289
"658530","co","alcaparral","Alcaparral","36",NA,5.64265,-73.015227
"658531","co","alcayata","Alcayata","28",NA,3.612222,-75.315833
"658532","co","alcazar","Alcázar","04",NA,10.783333,-75.166667
"658533","co","alcazares","Alcázares","34",NA,4.663288,-74.070344
"658534","co","alcazares norte","Alcázares Norte","34",NA,4.666232,-74.067284
"658535","co","alcibia","Alcibia","35",NA,10.416667,-75.516667
"658536","co","alcivar","Alcivar","20",NA,1.733333,-78.5
"658537","co","alcosana","Alcosana","19",NA,4.025842,-73.593775
"658538","co","aldana","Aldana","20",1956,0.882828,-77.701026
"658539","co","aldea","Aldea","02",NA,6.595,-75.914722
"658540","co","aldea de maria","Aldea de María","20",NA,0.916667,-77.533333
"658541","co","alegacion","Alegacion","35",NA,8.394088,-73.868708
"658542","co","alegria","Alegría","01",NA,-2.616667,-70.083333
"658543","co","alegrias","Alegrías","02",NA,5.551299,-75.611565
"658544","co","alegrias","Alegrías","24",NA,4.753056,-75.672778
"658545","co","alegrias","Alegrías","29",NA,4.083333,-75.85
"658546","co","alegrias","Alegrías","37",NA,5.3,-75.5
"658547","co","alejandria","Alejandría","02",2725,6.377447,-75.140649
"658548","co","alejandria","Alejandria","10",NA,10.133333,-73.983333
"658549","co","alejandria","Alejandría","28",NA,4.006111,-75.564167
"658550","co","alejandria","Alejandria","29",NA,3.768056,-76.058611
"658551","co","alejandria","Alejandría","33",NA,4.479492,-73.956363
"658552","co","alejandria","Alejandría","36",NA,5.566667,-73.931667
"658553","co","alejandria","Alejandría","37",NA,5.166667,-75.666667
"658554","co","alejandria","Alejandría","38",NA,9.802439,-74.197664
"658555","co","alejandro bernate","Alejandro Bernate","28",NA,4.183333,-74.75
"658556","co","alemania","Alemania","02",NA,6.478889,-74.771389
"658557","co","alemania","Alemania","08",NA,1.248305,-75.653458
"658558","co","alemania","Alemania","12",NA,8.676517,-75.863413
"658559","co","alemania","Alemania","16",NA,2.421699,-75.851755
"658560","co","alemania","Alemania","21",NA,8.227611,-72.381758
"658561","co","alemania","Alemania","26",NA,5.855984,-73.981748
"658562","co","alemania","Alemania","27",NA,8.548473,-74.747101
"658563","co","alemania","Alemania","33",NA,4.781049,-73.678198
"658564","co","alemania","Alemania","37",NA,4.966667,-75.833333
"658565","co","alemania","Alemania","38",NA,10.033333,-74.35
"658566","co","ales","Ales","20",NA,1.186858,-77.493113
"658567","co","aletones","Aletones","08",NA,1.487414,-75.868885
"658568","co","alex","Alex","20",NA,1.189979,-77.495592
"658569","co","alferez","Alférez","27",NA,8.841424,-75.07693
"658570","co","alferez","Alferéz","35",NA,9.716667,-75.166667
"658571","co","alfonso lopez","Alfonso López","02",NA,5.895137,-75.957222
"658572","co","alfonso lopez","Alfonso López","09",NA,2.216667,-77.7
"658573","co","alfonso lopez","Alfonso López","12",NA,8.393922,-74.902461
"658574","co","alfonso lopez","Alfonso López","20",NA,1.233655,-77.490875
"658575","co","alfonzo lopez","Alfonzo López","02",NA,5.895137,-75.957222
"658576","co","algarrabo","Algarrabo","32",NA,5.733333,-71.933333
"658577","co","algarrobal","Algarrobal","27",NA,9.738555,-75.389538
"658578","co","algarrobal","Algarrobal","38",NA,9.129532,-74.044765
"658579","co","algarrobillito","Algarrobillito","10",NA,10.299811,-73.260344
"658580","co","algarrobo","Algarrobo","02",NA,6.750833,-75.9175
"658581","co","algarrobo","Algarrobo","03",NA,6.438323,-71.520518
"658582","co","algarrobo","Algarrobo","04",NA,10.65,-75.15
"658583","co","algarrobo","Algarrobo","10",NA,10.186184,-74.060851
"658584","co","algarrobo","Algarrobo","12",NA,9.094389,-75.446159
"658585","co","algarrobo","Algarrobo","21",NA,8.411111,-73.269722
"658586","co","algarrobo","Algarrobo","26",NA,7.433333,-73.235278
"658587","co","algarrobo","Algarrobo","31",NA,4.094722,-70.854444
"658588","co","algarrobo","Algarrobo","32",NA,4.566202,-71.972741
"658589","co","algarrobo","Algarrobo","35",NA,8.471829,-74.508207
"658590","co","algarrobo","Algarrobo","36",NA,5.681109,-72.47812
"658591","co","algarrobo","Algarrobo","37",NA,5.0725,-75.584167
"658592","co","algarrobo","Algarrobo","38",10042,10.1,-74.266667
"658593","co","algeciras","Algeciras","16",10792,2.522953,-75.314922
"658594","co","algodonal","Algodonal","04",NA,10.348897,-74.949191
"658595","co","algodonal","Algodonal","21",NA,8.2,-73.316667
"658596","co","algodonal","Algodonal","32",NA,5.25,-72.15
"658597","co","algodoncillo","Algodoncillo","12",NA,9.268704,-75.55199
"658598","co","algodones","Algodones","33",NA,4.704565,-73.364963
"658599","co","algorrobo","Algorrobo","12",NA,9.094389,-75.446159
"658600","co","alianza","Alianza","01",NA,-2.883333,-69.766667
"658601","co","alianza","Alianza","09",NA,2.263367,-76.896809
"658602","co","alibisu","Alibisú","35",NA,10.166667,-75.25
"658603","co","alibizu","Alibizú","35",NA,10.166667,-75.25
"658604","co","alicante","Alicante","02",NA,6.616667,-74.6
"658605","co","alicante","Alicante","38",NA,10.647662,-74.22969
"658606","co","alicia","Alicia","29",NA,3.57,-76.435833
"658607","co","aljibes","Aljibes","26",NA,6.769191,-73.548828
"658608","co","allaos","Allaos","02",NA,6.261872,-75.701765
"658609","co","allemira","Allemira","20",NA,1.508442,-77.010611
"658610","co","almagra","Almagra","12",NA,8.9131,-75.913671
"658611","co","almagra","Almagra","27",NA,9.564874,-75.28223
"658612","co","almaguer","Almaguer","09",3120,1.917,-76.852331
"658613","co","almara","Almara","33",NA,5.51,-73.785833
"658614","co","almeida","Almeida","36",754,4.970833,-73.379722
"658615","co","almendro","Almendro","21",NA,7.583333,-72.833333
"658616","co","almendros","Almendros","34",NA,4.757467,-74.101832
"658617","co","almidon","Almidón","15",NA,3.825128,-67.956097
"658618","co","almirante colon","Almirante Colón","34",NA,4.715333,-74.083534
"658619","co","almorzadero","Almorzadero","16",NA,2.758889,-75.535833
"658620","co","almorzadero","Almorzadero","26",NA,5.763889,-73.851389
"658621","co","almorzadero","Almorzadero","29",NA,4.242289,-76.224593
"658622","co","almorzadero","Almorzadero","32",NA,5.483333,-72.483333
"658623","co","alonso lince","Alonso Lince","29",NA,3.695833,-76.261944
"658624","co","alpamanga","Alpamanga","22",NA,0.938816,-76.284634
"658625","co","alpena","Alpena","01",NA,-1.016667,-74.066667
"658626","co","alpes","Alpes","35",NA,10.399444,-75.481667
"658627","co","alpujarra","Alpujarra","02",NA,6.233333,-75.583333
"658628","co","alpujarra","Alpujarra","20",NA,1.617809,-77.165977
"658629","co","alpujarra","Alpujarra","28",NA,3.393056,-75.935556
"658630","co","alpujarrita","Alpujarrita","28",NA,3.361667,-74.982778
"658631","co","alqueria","Alquería","34",NA,4.602752,-74.140059
"658632","co","alqueria la fragua","Alquería La Fragua","34",NA,4.602752,-74.140059
"658633","co","alsacia","Alsacia","02",NA,5.677778,-75.846667
"658634","co","alsacia","Alsacia","23",NA,4.683333,-75.666667
"658635","co","alsacia","Alsacia","28",NA,3.434167,-75.174722
"658636","co","alsacia","Alsacia","30",NA,-0.75,-70.233333
"658637","co","alsacia","Alsacia","33",NA,4.747724,-74.249046
"658638","co","alsasia","Alsasia","23",NA,4.683333,-75.666667
"658639","co","alta","Alta","20",NA,1.533333,-78.15
"658640","co","alta buena vista","Alta Buena Vista","09",NA,2.733305,-76.521697
"658641","co","alta clara","Alta Clara","20",NA,1.359749,-77.074668
"658642","co","altaclara","Altaclara","38",NA,9.95,-74.033333
"658643","co","altaflor","Altaflor","29",NA,4.124444,-75.969722
"658644","co","alta flores","Alta Flores","26",NA,6.637222,-73.836667
"658645","co","alta gloria","Alta Gloria","26",NA,7.280278,-73.307222
"658646","co","altagracia","Altagracia","03",NA,6.343186,-70.487305
"658647","co","altagracia","Altagracia","16",NA,3.321944,-75.331944
"658648","co","altagracia","Altagracia","24",NA,4.738333,-75.713611
"658649","co","altagracia","Altagracia","32",NA,5.316667,-72.2
"658650","co","altagracia","Altagracia","36",NA,5.090393,-73.263465
"658651","co","altamar","Altamar","36",NA,5.637778,-73.966944
"658652","co","altamaria","Altamaria","02",NA,6.848611,-75.6275
"658653","co","altamira","Altamira","02",NA,6.219444,-75.948889
"658654","co","alta mira","Alta Mira","02",NA,7.916514,-74.909208
"658655","co","altamira","Altamira","04",NA,10.916667,-74.95
"658656","co","altamira","Altamira","08",NA,1.215824,-75.847369
"658657","co","altamira","Altamira","09",NA,2.605175,-77.1187
"658658","co","altamira","Altamira","10",NA,8.066667,-73.5
"658659","co","altamira","Altamira","12",NA,8.195833,-76.095278
"658660","co","altamira","Altamira","16",2123,2.062778,-75.787222
"658661","co","altamira","Altamira","19",NA,4.141868,-73.08207
"658662","co","altamira","Altamira","20",NA,1.660278,-76.927222
"658663","co","altamira","Altamira","21",NA,8.047762,-72.831015
"658664","co","altamira","Altamira","26",NA,5.966667,-73.983333
"658665","co","altamira","Altamira","27",NA,9.504256,-75.528231
"658666","co","altamira","Altamira","28",NA,3.255833,-75.616389
"658667","co","altamira","Altamira","29",NA,3.430191,-76.593516
"658668","co","altamira","Altamira","32",NA,4.685706,-72.184292
"658669","co","altamira","Altamira","33",NA,4.381619,-74.550672
"658670","co","altamira","Altamira","35",NA,10.6,-75.45
"658671","co","altamira","Altamira","36",NA,4.774904,-73.165836
"658672","co","altamir","Altamir","02",NA,7.021111,-75.5925
"658673","co","alta miranda","Alta Miranda","02",NA,6.534722,-75.745556
"658674","co","altamisa","Altamisa","16",NA,2.395441,-75.827547
"658675","co","altaquer","Altaquér","20",NA,1.246635,-78.091428
"658676","co","altas claras","Altas Claras","38",NA,9.70991,-74.347932
"658677","co","alta vista","Alta Vista","02",NA,5.816667,-74.65
"658678","co","altillo","Altillo","02",NA,7.4,-74.833333
"658679","co","alto abejorral","Alto Abejorral","02",NA,5.645218,-75.858293
"658680","co","alto","Alto","09",NA,2.691999,-76.773662
"658681","co","alto barandas","Alto Barandas","22",NA,0.814881,-75.879121
"658682","co","alto baudo","Alto Baudó","11",3242,5.516042,-76.97449
"658683","co","alto bello","Alto Bello","26",NA,6.083095,-73.360338
"658684","co","alto bonito","Alto Bonito","08",NA,1.147578,-75.566277
"658685","co","altobonito","Altobonito","12",NA,8.519681,-75.607477
"658686","co","alto bonito","Alto Bonito","29",NA,4.133056,-75.99
"658687","co","altobonito","Altobonito","36",NA,5.841111,-74.340833
"658688","co","alto bonito","Alto Bonito","37",NA,5.120448,-75.496713
"658689","co","alto buenavista","Alto Buenavista","02",NA,6.784167,-76.114444
"658690","co","alto buey pelado","Alto Buey Pelado","26",NA,7.106899,-73.702421
"658691","co","alto caldas","Alto Caldas","08",NA,1.638556,-75.670549
"658692","co","alto calera","Alto Calera","20",NA,1.283333,-77.466667
"658693","co","alto campo alegre","Alto Campo Alegre","26",NA,5.860903,-73.876817
"658694","co","alto canoas","Alto Canoas","02",NA,6.256705,-75.709563
"658695","co","alto cantano","Alto Cantano","26",NA,5.844167,-73.628333
"658696","co","alto capilla","Alto Capilla","26",NA,5.834722,-73.635
"658697","co","alto caracuchal","Alto Caracuchal","26",NA,6.373313,-73.12032
"658698","co","alto cauca","Alto Cauca","37",NA,4.9925,-75.743333
"658699","co","alto centro boqueron","Alto Centro Boquerón","26",NA,5.981667,-73.786111
"658700","co","alto chuare","Alto Chuaré","09",NA,2.866667,-77.233333
"658701","co","alto cruz","Alto Cruz","02",NA,6.801389,-75.736389
"658702","co","alto de angosturas","Alto de Angosturas","26",NA,7.319444,-73.313889
"658703","co","alto de belleza","Alto de Belleza","28",NA,4.490278,-75.138333
"658704","co","alto de cabrera","Alto de Cabrera","20",NA,1.283333,-77.466667
"658705","co","alto de calarca","Alto de Calarcá","36",NA,5.989714,-72.547883
"658706","co","alto de cascajal","Alto de Cascajal","33",NA,4.471013,-73.92776
"658707","co","alto de cuatro bocas","Alto de Cuatro Bocas","35",NA,8.722379,-74.145394
"658708","co","alto de garzon","Alto de Garzón","16",NA,2.196145,-75.648457
"658709","co","alto de la cruz","Alto de La Cruz","24",NA,4.96,-75.5775
"658710","co","alto de la cruz","Alto de La Cruz","33",NA,4.425612,-73.979636
"658711","co","alto de la mina","Alto de la Mina","37",NA,4.951389,-75.684446
"658712","co","alto de la torre","Alto de La Torre","28",NA,4.476667,-75.152778
"658713","co","alto del cielo","Alto del Cielo","28",NA,4.058333,-75.311111
"658714","co","alto del corral","Alto del Corral","02",NA,6.20576,-75.775712
"658715","co","alto de lisboa","Alto de Lisboa","37",NA,5.116667,-75.593611
"658716","co","alto del manzanillo","Alto del Manzanillo","37",NA,4.926389,-75.651389
"658717","co","alto del obispo","Alto del Obispo","16",NA,1.847217,-76.253105
"658718","co","alto del oso","Alto del Oso","16",NA,1.649943,-76.109309
"658719","co","alto del oso","Alto del Oso","23",NA,4.383333,-75.65
"658720","co","alto de los patios","Alto de Los Patios","21",NA,8.25,-73.283333
"658721","co","alto de los patos","Alto de Los Patos","10",NA,8.324444,-73.308056
"658722","co","alto del rey","Alto del Rey","09",NA,2.439397,-76.852357
"658723","co","alto del rey","Alto del Rey","20",NA,0.964802,-77.506562
"658724","co","alto del rio","Alto del Río","23",NA,4.539722,-75.650278
"658725","co","alto del rodadero","Alto del Rodadero","33",NA,4.457245,-73.967343
"658726","co","alto del rosario","Alto del Rosario","12",NA,8.604954,-75.838254
"658727","co","alto del rosario","Alto del Rosario","35",NA,8.792464,-74.161372
"658728","co","alto de manablanca","Alto de Manablanca","33",NA,4.394159,-73.899474
"658729","co","alto de mayo","Alto de Mayo","09",NA,1.697674,-77.299561
"658730","co","alto de miradorcito","Alto de Miradorcito","28",NA,4.491389,-75.156111
"658731","co","alto de mulatos","Alto de Mulatos","02",NA,8.129414,-76.534067
"658732","co","alto de ortega","Alto de Ortega","28",NA,3.998299,-75.270534
"658733","co","alto de paez","Alto de Páez","29",NA,4.266667,-76.3
"658734","co","alto de tigre","Alto de Tigre","02",NA,7.178177,-74.678401
"658735","co","alto el cajon","Alto El Cajón","26",NA,6.396614,-73.093089
"658736","co","alto el consuelo","Alto El Consuelo","16",NA,1.632592,-76.105506
"658737","co","alto el morro","Alto El Morro","33",NA,5.154664,-74.560528
"658738","co","alto el oso","Alto El Oso","23",NA,4.383333,-75.65
"658739","co","alto el pozo","Alto El Pozo","21",NA,8.061111,-73.02
"658740","co","alto el rayo","Alto El Rayo","10",NA,8.133333,-73.516667
"658741","co","alto el rey","Alto El Rey","20",NA,0.964802,-77.506562
"658742","co","alto el saltadero","Alto El Saltadero","02",NA,6.436094,-75.563059
"658743","co","alto el silencio","Alto El Silencio","02",NA,7.268889,-75.852778
"658744","co","alto el toro","Alto El Toro","24",NA,4.805,-75.639444
"658745","co","alto forero","Alto Forero","36",NA,5.674167,-73.658333
"658746","co","alto frio","Alto Frío","33",NA,5.685556,-74.345833
"658747","co","alto gachantiva","Alto Gachantiva","36",NA,5.684444,-73.549722
"658748","co","alto gavilan","Alto Gavilán","34",NA,3.905,-74.385833
"658749","co","alto genova","Alto Genova","12",NA,8.5457,-75.636824
"658750","co","alto girardot","Alto Girardot","33",NA,5.1604,-74.533462
"658751","co","alto grande","Alto Grande","36",NA,5.930566,-72.402762
"658752","co","alto guamito","Alto Guamito","26",NA,5.873889,-73.620833
"658753","co","alto guaramito","Alto Guaramito","21",NA,8.195833,-72.384722
"658754","co","alto harmony hall","Alto Harmony Hall","25",NA,12.539203,-81.70868
"658755","co","alto jordan","Alto Jordan","26",NA,6.204734,-73.743447
"658756","co","alto juyamoca","Alto Juyamoca","26",NA,5.916269,-73.670007
"658757","co","alto la belleza","Alto La Belleza","26",NA,5.935278,-73.866389
"658758","co","alto la campana","Alto La Campana","09",NA,1.749111,-77.189748
"658759","co","alto la canada","Alto La Cañada","09",NA,1.692715,-77.219465
"658760","co","alto la compana","Alto La Compana","09",NA,1.749111,-77.189748
"658761","co","alto la concordia","Alto La Concordia","25",NA,12.539203,-81.70868
"658762","co","alto la meseta","Alto La Meseta","26",NA,5.904648,-73.63265
"658763","co","alto la piedra","Alto La Piedra","02",NA,6.694444,-75.542778
"658764","co","alto la playa","Alto La Playa","09",NA,2.072721,-76.680598
"658765","co","alto la quiebra","Alto La Quiebra","02",NA,6.270469,-75.61655
"658766","co","alto las niguas","Alto Las Niguas","26",NA,6.484001,-73.153383
"658767","co","alto las parras","Alto Las Parras","02",NA,5.646282,-75.82521
"658768","co","alto lisboa","Alto Lisboa","37",NA,5.116667,-75.593611
"658769","co","alto loma hermtosa","Alto Loma Hermtosa","02",NA,6.269341,-75.627261
"658770","co","alto losada","Alto Losada","19",NA,2.374436,-74.556108
"658771","co","alto lucero","Alto Lucero","21",NA,8.149444,-73.385
"658772","co","alto mayo","Alto Mayo","09",NA,1.697674,-77.299561
"658773","co","alto mira","Alto Mira","03",NA,6.356303,-71.792934
"658774","co","altomira","Altomira","04",NA,10.916667,-74.95
"658775","co","altomira","Altomira","29",NA,4.172222,-75.919167
"658776","co","altomira","Altomira","33",NA,5.764167,-74.380833
"658777","co","alto paez","Alto Paez","29",NA,4.266667,-76.3
"658778","co","alto palma","Alto Palma","26",NA,6.283333,-73.65
"658779","co","alto pance","Alto Pance","29",NA,3.329426,-76.635422
"658780","co","alto pena colorado","Alto Peña Colorado","20",NA,0.989444,-77.789167
"658781","co","alto piedra herrada","Alto Piedra Herrada","36",NA,5.463379,-73.117103
"658782","co","alto pino","Alto Pino","17",NA,11.44354,-72.541946
"658783","co","altoplano","Altoplano","38",NA,9.900947,-74.289106
"658784","co","alto prado","Alto Prado","29",NA,3.701944,-76.160278
"658785","co","alto redondo","Alto Redondo","32",NA,5.210587,-72.774387
"658786","co","alto redondo","Alto Redondo","33",NA,4.583572,-73.259265
"658787","co","altoros","Altoros","08",NA,2.021389,-74.804444
"658788","co","alto rosario","Alto Rosario","12",NA,8.604954,-75.838254
"658789","co","alto rosario","Alto Rosario","35",NA,8.792464,-74.161372
"658790","co","alto san juan","Alto San Juan","28",NA,4.205745,-75.322548
"658791","co","alto sano","Alto Sano","28",NA,3.957778,-75.262778
"658792","co","alto san rafael","Alto San Rafael","02",NA,5.558406,-75.782498
"658793","co","altos del rosario","Altos del Rosario","35",5220,8.794444,-74.165833
"658794","co","alto seco","Alto Seco","33",NA,5.598333,-74.368611
"658795","co","alto senon","Alto Senón","02",NA,5.645833,-75.835556
"658796","co","alto sigui","Alto Sigüí","09",NA,2.867716,-77.193098
"658797","co","alto suarez","Alto Suárez","26",NA,6.289983,-73.401932
"658798","co","alto talpiaquer","Alto Talpiaquer","20",NA,1.033333,-77.3
"658799","co","alto tapialquer","Alto Tapialquer","20",NA,1.033333,-77.3
"658800","co","alto tierra negra","Alto Tierra Negra","34",NA,3.979444,-74.380556
"658801","co","alto valvanera","Alto Valvanera","20",NA,0.983486,-77.66644
"658802","co","alto venecia","Alto Venecia","02",NA,6.745556,-75.511111
"658803","co","altoviento","Altoviento","21",NA,8.166667,-72.45
"658804","co","alto viento","Alto Viento","26",NA,6.749874,-73.696296
"658805","co","alto villaraso","Alto Villaraso","24",NA,4.971111,-75.555556
"658806","co","alturas","Alturas","24",NA,5.355382,-75.811307
"658807","co","alturas","Alturas","28",NA,4.420556,-75.4975
"658808","co","aluuotiro","Aluuotirö","17",NA,12.118585,-71.765768
"658809","co","alvarado","Alvarado","28",2049,4.566124,-74.962294
"658810","co","alvecia","Alvecia","29",NA,3.645278,-76.104444
"658811","co","alvernia","Alvernia","22",NA,1.183333,-76.516667
"658812","co","amaceri","Amaceri","02",NA,7.733333,-74.716667
"658813","co","amacocha","Amacocha","01",NA,-1.385224,-73.554083
"658814","co","amador","Amador","35",NA,10.433333,-75.533333
"658815","co","amaga","Amagá","02",12170,6.040011,-75.703151
"658816","co","amagamiento","Amagamiento","02",NA,6.25,-74.9
"658817","co","amaiceo","Amaiceo","17",NA,11.255346,-72.371478
"658818","co","amaigur","Amaigur","17",NA,11.433333,-72.2
"658819","co","amaime","Amaime","29",NA,3.606523,-76.275069
"658820","co","amaiquiro","Amaiquiro","17",NA,12.083333,-72.116667
"658821","co","amaiteo","Amaiteo","17",NA,11.255346,-72.371478
"658822","co","amakimahana","Amakimahana","17",NA,12.241291,-71.68273
"658823","co","amalfi","Amalfi","02",9733,6.910163,-75.077644
"658824","co","amalia","Amalia","02",NA,7.001667,-75.038333
"658825","co","amalia lopez","Amalia López","29",NA,4.111111,-75.983889
"658826","co","amamahana","Amámahana","17",NA,11.413889,-72.390556
"658827","co","amanaven","Amanaven","31",NA,4.096416,-67.733269
"658828","co","amansagatos","Amansagatos","26",NA,6.277778,-73.22
"658829","co","amanseri","Amanserí","02",NA,7.737267,-74.722503
"658830","co","amantible","Amantible","02",NA,6.916389,-75.566944
"658831","co","amaranto","Amaranto","02",NA,5.850351,-75.931966
"658832","co","amaseri","Amaserí","02",NA,7.737267,-74.722503
"658833","co","amaurica","Amaurica","17",NA,11.495473,-72.743125
"658834","co","amaya","Amaya","12",NA,9.393425,-75.77131
"658835","co","amayarco","Amayarco","28",NA,3.773333,-75.179444
"658836","co","amazonas","Amazonas","10",NA,10.1,-73.3
"658837","co","amazonas","Amazonas","27",NA,8.70457,-74.765611
"658838","co","amazonas","Amazonas","35",NA,9.9,-75.116667
"658839","co","amazonas","Amazonas","38",NA,10.37255,-74.416915
"658840","co","ambalamita","Ambalamita","28",NA,3.290556,-74.924722
"658841","co","ambalema","Ambalema","28",4892,4.78405,-74.762682
"658842","co","ambato","Ambato","28",NA,4.236867,-74.900131
"658843","co","amberes","Amberes","28",NA,4.171667,-75.613611
"658844","co","amberes","Amberes","29",NA,3.518889,-76.131111
"658845","co","amberes","Amberes","35",NA,10.4,-75.516667
"658846","co","ambica","Ambica","16",NA,2.585767,-75.663467
"658847","co","ambica","Ambicá","28",NA,3.495833,-74.794167
"658848","co","amborco","Amborco","16",NA,3.021944,-75.364444
"658849","co","amborquito","Amborquito","16",NA,3.028611,-75.358889
"658850","co","ambrosia","Ambrosia","04",NA,10.462771,-75.025903
"658851","co","ambrosio","Ambrosio","04",NA,10.462771,-75.025903
"658852","co","ambulu","Ambulu","28",NA,3.636111,-75.355
"658853","co","amchisohu","Amchisohu","17",NA,12.24929,-71.344886
"658854","co","america","América","02",NA,6.25,-75.616667
"658855","co","america","América","37",NA,5.426338,-74.823189
"658856","co","amezquita","Amézquita","36",NA,5.783333,-73.216667
"658857","co","aminda","Aminda","20",NA,1.616667,-77.5
"658858","co","amocal","Amocal","36",NA,5.724722,-74.004167
"658859","co","amoya","Amoyá","28",NA,3.672467,-75.384118
"658860","co","amparo","Amparo","32",NA,4.75,-72.233333
"658861","co","amparo","Amparo","38",NA,10.15,-74.45
"658862","co","amsterco","Amsterco","02",NA,8.038868,-76.657456
"658863","co","amsterdam","Amsterdam","33",NA,4.977825,-73.903241
"658864","co","amurco","Amurco","17",NA,11.476944,-72.756944
"658865","co","amururua","Amúrurua","17",NA,11.5925,-72.739444
"658866","co","anacal","Anacal","26",NA,6.158014,-73.148386
"658867","co","anacarco","Anacarco","28",NA,3.446389,-75.098889
"658868","co","anacaro","Anacaro","29",NA,4.789167,-75.966667
"658869","co","anacleto garcia","Anacleto García","16",NA,2.983333,-75
"658870","co","anaconia","Anaconia","16",NA,2.928229,-75.100215
"658871","co","anacuta","Anacuta","33",NA,4.334167,-74.490531
"658872","co","anai","Anaí","17",NA,11.626195,-72.375102
"658873","co","anaime","Anaime","17",NA,11.24358,-73.04032
"658874","co","anaime","Anaime","28",NA,4.396389,-75.445
"658875","co","ana joaquina","Ana Joaquina","35",NA,9.240536,-74.567154
"658876","co","analipa","Analipa","17",NA,11.416667,-72.633333
"658877","co","analipe","Analipe","17",NA,11.416667,-72.633333
"658878","co","anapoima","Anapoima","33",4953,4.520278,-74.539444
"658879","co","a narino","A Nariño","20",NA,1.756003,-78.475033
"658880","co","anasu","Anasu","09",NA,3.05,-76.666667
"658881","co","anayaco","Anayaco","16",NA,1.817778,-75.87883
"658882","co","anay","Anay","17",NA,11.626195,-72.375102
"658883","co","anayas","Anayas","09",NA,2.51444,-76.786099
"658884","co","anazco","Añazco","29",NA,3.5175,-76.166389
"658885","co","anchicaya","Anchicaya","29",NA,3.618611,-76.913333
"658886","co","anchique","Anchique","28",NA,3.579688,-75.099279
"658887","co","ancon","Ancón","20",NA,1.533333,-78.9
"658888","co","ancon","Ancón","35",NA,9.225945,-74.52698
"658889","co","ancuya","Ancuya","20",5852,1.2703,-77.515749
"658890","co","andadero","Andadero","33",NA,4.85,-73.766667
"658891","co","andagoya","Andagoya","11",NA,5.094503,-76.722773
"658892","co","andalucia","Andalucía","02",NA,7.587222,-76.633889
"658893","co","andalucia","Andalucia","08",NA,1.254802,-75.45783
"658894","co","andalucia","Andalucía","10",NA,10.083333,-73.983333
"658895","co","andalucia","Andalucía","16",NA,1.903716,-75.685821
"658896","co","andalucia","Andalucía","27",NA,8.664834,-74.991157
"658897","co","andalucia","Andalucía","29",17432,4.17061,-76.166411
"658898","co","andalucia","Andalucía","33",NA,4.673183,-73.991686
"658899","co","andalucia","Andalucia","36",NA,5.556944,-73.781111
"658900","co","andalucia","Andalucía","38",NA,10.583333,-74.216667
"658901","co","andes","Andes","02",16420,5.656098,-75.878772
"658902","co","andes","Andes","04",NA,10.966667,-74.816667
"658903","co","andian","Andian","35",NA,10.25,-75.266667
"658904","co","andian","Andian","38",NA,10.316115,-74.443868
"658905","co","andianapolis","Andianapolis","29",NA,4.165833,-76.386389
"658906","co","andinapoles","Andinapóles","29",NA,4.165833,-76.386389
"658907","co","andongo","Andongo","20",NA,1.638189,-77.407135
"658908","co","andorra","Andorra","26",NA,6.143059,-73.177442
"658909","co","andorra","Andorra","33",NA,4.526574,-74.694719
"658910","co","andrea","Andrea","04",NA,10.766667,-74.833333
"658911","co","anerrutamahana","Anerrutamahana","17",NA,12.323584,-71.662831
"658912","co","anganoy","Anganoy","20",NA,1.233333,-77.283333
"658913","co","angelia","Angelia","28",NA,3.493333,-75.269722
"658914","co","angelina","Angelina","02",NA,6.715,-75.886667
"658915","co","angelopolis","Angelópolis","02",1917,6.083333,-75.7
"658916","co","angentina","Angentina","26",NA,6.813959,-73.705911
"658917","co","angola","Angola","27",NA,9.9,-75.45
"658918","co","angola","Angola","35",NA,10.208189,-75.266936
"658919","co","angonoy","Angonoy","20",NA,1.233333,-77.283333
"658920","co","angostura","Angostura","01",NA,-0.45,-72.516667
"658921","co","angostura","Angostura","02",3640,6.885077,-75.334669
"658922","co","angostura","Angostura","08",NA,1.032097,-76.164013
"658923","co","angostura","Angostura","09",NA,2.745522,-77.469829
"658924","co","angostura","Angostura","10",NA,8.116667,-73.533333
"658925","co","angostura","Angostura","20",NA,1.216667,-78.583333
"658926","co","angostura","Angostura","26",NA,7.036564,-73.276734
"658927","co","angostura","Angostura","28",NA,3.803333,-75.063056
"658928","co","angostura","Angostura","38",NA,10.433333,-74.633333
"658929","co","angosturas","Angosturas","02",NA,6.885077,-75.334669
"658930","co","angosturas","Angosturas","03",NA,6.533333,-71.783333
"658931","co","angosturas","Angosturas","08",NA,-0.588438,-72.717282
"658932","co","angosturas","Angosturas","19",NA,4.562263,-73.003449
"658933","co","angosturas","Angosturas","26",NA,6.244624,-73.261442
"658934","co","angosturas","Angosturas","29",NA,3.97101,-76.179015
"658935","co","angulo","Angulo","09",NA,2.051887,-77.107765
"658936","co","angustia","Angustia","27",NA,9.323471,-75.339699
"658937","co","animas","Ánimas","20",NA,0.85,-77.633333
"658938","co","anjel del descanso","Anjel del Descanso","17",NA,11.683333,-72.75
"658939","co","anolaima","Anolaima","10",NA,8.088962,-73.529127
"658940","co","anolaima","Anolaima","33",5585,4.765904,-74.465477
"658941","co","anonuevo","Añonuevo","11",NA,8.192523,-77.107887
"658942","co","anori","Anorí","02",4762,7.072725,-75.147677
"658943","co","anselmo sedy","Anselmo Sedy","11",NA,5.016667,-77.116667
"658944","co","anserma","Anserma","24",25242,5.332778,-75.791111
"658945","co","ansermanueva","Ansermanueva","29",NA,4.797222,-75.995
"658946","co","ansermanuevo","Ansermanuevo","29",12332,4.797222,-75.995
"658947","co","antado","Antadó","02",NA,6.983333,-76.25
"658948","co","antado","Antadó","11",NA,6.683333,-77.333333
"658949","co","antasales","Antasales","02",NA,7.35,-76.15
"658950","co","antechiro","Antechiro","17",NA,12.083333,-71.383333
"658951","co","anteshiruhu","Antéshiruhu","17",NA,12.083333,-71.383333
"658952","co","antezales","Antezales","02",NA,7.35,-76.15
"658953","co","antiguo","Antiguo","31",NA,6.083333,-69.233333
"658954","co","antiguo caserio la bonga","Antiguo Caserío La Bonga","35",NA,10.372634,-75.2836
"658955","co","antioquia","Antioquia","02",11829,6.556867,-75.828056
"658956","co","antioquia","Antioquia","28",NA,4.370724,-74.952487
"658957","co","antioquia","Antioquia","33",NA,4.6,-74.4
"658958","co","antonazo","Antoñazo","38",NA,10.240991,-74.336459
"658959","co","antonia","Antonia","38",NA,10.870544,-74.182836
"658960","co","antonia santos","Antonia Santos","26",NA,6.272725,-73.036037
"658961","co","antonia santos","Antonia Santos","33",NA,5.552778,-73.801389
"658962","co","antonio garcia","Antonio Garcia","12",NA,8.860278,-76.339722
"658963","co","antonio narino","Antonio Nariño","20",NA,1.663241,-77.0174
"658964","co","antonio narino","Antonio Nariño","29",NA,3.411951,-76.504574
"658965","co","antonio narino","Antonio Nariño","33",NA,4.861251,-73.645727
"658966","co","antonio narino","António Nariño","34",NA,4.585617,-74.10151
"658967","co","antonio recaurte","Antonio Recaurte","36",NA,5.665833,-73.729722
"658968","co","antonio ricaurte","Antonio Ricaurte","29",NA,3.645513,-76.247673
"658969","co","antonio salguero","Antonio Salguero","11",NA,5.566667,-77.016667
"658970","co","anuachom a","Anúachom A","17",NA,11.460109,-72.559272
"658971","co","anuachom b","Anúachom B","17",NA,11.466661,-72.557887
"658972","co","anuachon","Anúachon","17",NA,11.460109,-72.559272
"658973","co","anuariachom","Anuariachóm","17",NA,11.245921,-72.253508
"658974","co","anza","Anzá","02",NA,6.30322,-75.853806
"658975","co","anzoategui","Anzoátegui","28",2229,4.629963,-75.09539
"658976","co","apariuohu","Apariuohu","17",NA,11.428056,-72.137222
"658977","co","apartadade","Apartadade","12",NA,8.778421,-75.560149
"658978","co","apartadero","Apartadero","21",NA,8.216667,-73.333333
"658979","co","apartaderos","Apartaderos","21",NA,8.216667,-73.333333
"658980","co","apartado","Apartadó","02",86439,7.866667,-76.666667
"658981","co","aperche","Aperche","33",NA,5.423642,-74.360956
"658982","co","apia","Apía","24",6940,5.10645,-75.943177
"658983","co","apial","Apial","19",NA,4.105594,-73.59242
"658984","co","apiay","Apiay","19",NA,4.105594,-73.59242
"658985","co","apicala","Apicala","28",NA,4.147252,-74.720141
"658986","co","apone","Aponé","28",NA,3.666667,-75.366667
"658987","co","aponte","Aponte","20",NA,1.40095,-77.030009
"658988","co","aponte","Aponte","28",NA,3.666667,-75.366667
"658989","co","aposentos","Aposentos","21",NA,8.333333,-73.066667
"658990","co","aposentos","Aposentos","26",NA,5.929722,-73.856111
"658991","co","aposentos","Aposentos","33",NA,4.033333,-74.45
"658992","co","aposentos","Aposentos","36",NA,5.638333,-73.598889
"658993","co","apotoruitpa","Apotoruitpa","17",NA,11.989797,-72.054321
"658994","co","apotureca","Apotureca","17",NA,11.485,-72.5775
"658995","co","apucarpo","Apucarpo","02",NA,6.726111,-76.033611
"658996","co","apulo","Apulo","33",NA,4.519521,-74.59293
"658997","co","apure","Apure","38",NA,9.871815,-74.585907
"658998","co","apure plato","Apure Plato","38",NA,9.871815,-74.585907
"658999","co","aquablanca","Aquablanca","29",NA,3.684907,-76.354936
"659000","co","aquabonita","Aquabonita","14",NA,2.579625,-72.588927
"659001","co","aquachia","Aquachía","10",NA,8.308442,-73.6166
"659002","co","aquatria","Aquatría","09",NA,1.7725,-77.236944
"659003","co","aquitania","Aquitania","02",NA,5.843837,-74.970596
"659004","co","aquitania","Aquitania","36",5718,5.519722,-72.8875
"659005","co","aquitas","Aquitas","02",NA,7.333432,-75.46906
"659006","co","arabia","Arabia","02",NA,5.916667,-75.783333
"659007","co","arabia","Arabia","15",NA,3.635953,-69.054399
"659008","co","arabia","Arabia","16",NA,2.206605,-75.677223
"659009","co","arabia","Arabia","24",NA,4.717778,-75.715556
"659010","co","arabia","Arabia","28",NA,3.360278,-75.663056
"659011","co","arabia","Arabia","32",NA,4.783333,-72.25
"659012","co","arabia","Arabia","33",NA,4.483333,-74.466667
"659013","co","arabia","Arabia","37",NA,5.111665,-75.570639
"659014","co","arabia","Arabia","38",NA,10.266667,-74.25
"659015","co","araca","Araca","28",NA,3.566667,-75.433333
"659016","co","aracal","Aracal","33",NA,4.316825,-73.139433
"659017","co","aracataca","Aracataca","38",27704,10.591812,-74.189831
"659018","co","arache","Arache","12",NA,9.07534,-75.642861
"659019","co","aracuara","Aracuara","08",NA,-0.615263,-72.383902
"659020","co","aracure","Aracure","31",NA,4.370278,-70.6
"659021","co","arada","Arada","28",NA,3.455654,-74.884378
"659022","co","aragon","Aragón","02",NA,6.782341,-75.561906
"659023","co","araguato","Araguato","14",NA,2.751389,-70.79
"659024","co","arainaguo","Arainaguo","17",NA,11.473377,-72.780311
"659025","co","arakachom","Arákachom","17",NA,11.474114,-72.314047
"659026","co","arambaza","Arambaza","01",NA,-2.066667,-73.1
"659027","co","aranapuruohu","Aránapuruohu","17",NA,12.141109,-71.727859
"659028","co","aranda","Aranda","20",NA,1.239251,-77.268174
"659029","co","aranda","Aranda","26",NA,6.283333,-73.366667
"659030","co","aranjuez","Aranjuez","02",NA,6.283333,-75.566667
"659031","co","aranjuez","Aranjuez","29",NA,3.435488,-76.524733
"659032","co","aranzazu","Aranzazu","09",NA,2.476416,-75.919011
"659033","co","aranzazu","Aranzazu","37",9327,5.271232,-75.490438
"659034","co","araos","Araos","02",NA,6.709722,-75.922778
"659035","co","araparen","Aráparen","17",NA,11.498344,-72.1732
"659036","co","arara","Arará","14",NA,1.164397,-71.639954
"659037","co","ararac","Ararac","01",NA,-0.8,-72.333333
"659038","co","araracuara","Araracuara","01",NA,-0.621695,-72.383952
"659039","co","araracuara","Araracuara","19",NA,2.862693,-71.865924
"659040","co","araras de coemas","Araras de Coemas","01",NA,-1.216667,-72.333333
"659041","co","ararca","Ararca","35",NA,10.26102,-75.555064
"659042","co","arashouri","Aráshouri","17",NA,12.40032,-71.511294
"659043","co","aratoca","Aratoca","26",2101,6.693532,-73.020826
"659044","co","aratoque","Aratoque","21",NA,8.25,-73.2
"659045","co","araua","Araua","17",NA,12.317786,-71.651918
"659046","co","arauca","Arauca","03",69266,7.084512,-70.755366
"659047","co","arauca","Arauca","08",NA,1.543472,-75.603193
"659048","co","arauca","Arauca","10",NA,9.170278,-73.546667
"659049","co","arauca","Arauca","16",NA,3.237547,-74.795342
"659050","co","arauca","Arauca","29",NA,3.650556,-76.450278
"659051","co","arauca","Arauca","37",NA,5.110478,-75.702298
"659052","co","arauco","Arauco","37",NA,5.110478,-75.702298
"659053","co","araujo","Araujo","09",NA,2.577927,-75.830853
"659054","co","araujo","Araujo","38",NA,9.269229,-74.250693
"659055","co","araurica","Araurica","17",NA,11.616667,-72.683333
"659056","co","araurio","Araurío","17",NA,11.800833,-72.359167
"659057","co","arayon","Arayón","29",NA,3.416166,-77.139294
"659058","co","arbela","Arbela","09",NA,2.143607,-76.771921
"659059","co","arbelaez","Arbeláez","27",NA,9.012692,-75.170909
"659060","co","arbelaez","Arbeláez","33",5252,4.272543,-74.415128
"659061","co","arbol del descanso","Árbol del Descanso","17",NA,11.683333,-72.75
"659062","co","arboleda","Arboleda","02",NA,5.877366,-75.506686
"659063","co","arboleda","Arboleda","09",NA,1.70134,-77.201394
"659064","co","arboleda","Arboleda","10",NA,8.732128,-73.722759
"659065","co","arboleda","Arboleda","20",1736,1.508584,-77.124435
"659066","co","arboleda","Arboleda","27",NA,8.816667,-74.616667
"659067","co","arboleda","Arboleda","37",NA,5.583333,-75.15
"659068","co","arboledas","Arboledas","09",NA,1.70134,-77.201394
"659069","co","arboledas","Arboledas","21",2702,7.642333,-72.799442
"659070","co","arboledas","Arboledas","27",NA,9.233611,-74.9925
"659071","co","arboleda sur","Arboleda Sur","34",NA,4.563691,-74.119878
"659072","co","arboletas","Arboletas","02",NA,8.85051,-76.426939
"659073","co","arboletes","Arboletes","02",8381,8.85051,-76.426939
"659074","co","arbolito","Arbolito","28",NA,4.013889,-75.639722
"659075","co","arbolsolo","Arbolsolo","26",NA,6.207264,-73.103748
"659076","co","arbol solo","Árbol Solo","26",NA,6.419832,-73.222773
"659077","co","arbol solo","Árbol Solo","36",NA,6.2,-72.716667
"659078","co","arcabuco","Arcabuco","36",1564,5.754629,-73.436694
"659079","co","arcadia","Arcadia","16",NA,2.436573,-75.411011
"659080","co","arcadia","Arcadia","28",NA,4.4,-75.466667
"659081","co","archibolds","Archibolds","25",NA,13.333333,-81.366667
"659082","co","arcon","Arcón","37",NA,5.5,-75.666667
"659083","co","ardila","Ardila","02",NA,6.4,-75.233333
"659084","co","ardita","Ardita","11",NA,7.150085,-77.791104
"659085","co","arebe","Arebe","31",NA,4.766667,-68.5
"659086","co","aremasahin","Arémasahin","17",NA,12.1865,-71.815662
"659087","co","aremasain","Aremasain","17",NA,11.491981,-72.694852
"659088","co","aremasanahu","Aremasánahu","17",NA,11.882502,-71.641612
"659089","co","aremasauahu","Aremasáuahu","17",NA,11.882502,-71.641612
"659090","co","aremasauao","Aremasauao","17",NA,11.882502,-71.641612
"659091","co","arena","Arena","12",NA,8.461745,-75.548942
"659092","co","arena","Arena","17",NA,11.185437,-72.722656
"659093","co","arena","Arena","20",NA,1.515726,-77.098
"659094","co","arena","Arena","27",NA,9.4263,-75.020942
"659095","co","arena","Arena","35",NA,9.508945,-74.922853
"659096","co","arena blanca","Arena Blanca","10",NA,9.46186,-73.457617
"659097","co","arenablanca","Arenablanca","27",NA,9.165256,-74.972585
"659098","co","arena del norte","Arena del Norte","12",NA,8.986833,-75.500231
"659099","co","arena del sur","Arena del Sur","12",NA,8.581111,-75.584167
"659100","co","arenal","Arenal","09",NA,2.968211,-77.397405
"659101","co","arenal","Arenal","11",NA,5.142995,-77.030591
"659102","co","arenal","Arenal","12",NA,8.581111,-75.584167
"659103","co","arenal","Arenal","20",NA,1.466667,-77.533333
"659104","co","arenal","Arenal","27",NA,9.37802,-75.480904
"659105","co","arenal","Arenal","29",NA,4,-76.916667
"659106","co","arenal","Arenal","35",5346,8.459278,-73.943309
"659107","co","arenal chico","Arenal Chico","33",NA,5,-73.95
"659108","co","arenales","Arenales","09",NA,2.820816,-76.706869
"659109","co","arenales","Arenales","19",NA,3.533599,-73.331461
"659110","co","arenales","Arenales","26",NA,7.233556,-73.186238
"659111","co","arenales","Arenales","29",NA,4,-76.916667
"659112","co","arenas","Arenas","12",NA,8.581111,-75.584167
"659113","co","arenas","Arenas","35",NA,9.807584,-75.195845
"659114","co","arenasblancas","Arenasblancas","10",NA,9.46186,-73.457617
"659115","co","arenas del norte","Arenas del Norte","12",NA,8.986111,-75.500833
"659116","co","arenas del sur","Arenas del Sur","12",NA,8.581111,-75.584167
"659117","co","arenosa","Arenosa","02",NA,6.474258,-74.686187
"659118","co","arenosa","Arenosa","21",NA,8.09537,-72.493759
"659119","co","arenosa","Arenosa","36",NA,5.994671,-74.24856
"659120","co","arenosa","Arenosa","37",NA,5.433333,-75.433333
"659121","co","arenosita","Arenosita","02",NA,7.016667,-74.55
"659122","co","arenosita","Arenosita","08",NA,1.314099,-75.88285
"659123","co","arenoso","Arenoso","12",NA,8.217598,-75.737998
"659124","co","ares bocas","Ares Bocas","03",NA,6.977292,-71.219466
"659125","co","argel","Argel","33",NA,4.75,-74.316667
"659126","co","argelia","Argelia","01",NA,-1.31932,-73.433273
"659127","co","argelia","Argelia","02",3474,5.731269,-75.142573
"659128","co","argelia","Argelia","08",NA,1.146346,-75.796467
"659129","co","argelia","Argelia","09",4262,2.25563,-77.248762
"659130","co","argelia","Argelia","28",NA,3.493333,-75.269722
"659131","co","argelia","Argelia","29",3419,4.723415,-76.119091
"659132","co","argelia","Argelia","33",NA,4.465591,-74.432065
"659133","co","argelia","Argelia","36",NA,4.810084,-73.170996
"659134","co","argelia","Argelia","38",NA,9.55,-74.7
"659135","co","argentina","Argentina","02",NA,5.733333,-75.05
"659136","co","argentina","Argentina","03",NA,7.00847,-71.82767
"659137","co","argentina","Argentina","08",NA,1.522255,-75.741088
"659138","co","argentina","Argentina","10",NA,10.103215,-73.342271
"659139","co","argentina","Argentina","16",NA,2.197616,-75.979898
"659140","co","argentina","Argentina","19",NA,4.12172,-73.526699
"659141","co","argentina","Argentina","21",NA,7.178056,-72.2525
"659142","co","argentina","Argentina","22",NA,0.935249,-75.90624
"659143","co","argentina","Argentina","24",NA,5.128612,-75.85242
"659144","co","argentina","Argentina","26",NA,6.813959,-73.705911
"659145","co","argentina","Argentina","29",NA,3.833333,-76.683333
"659146","co","argentina","Argentina","32",NA,4.883921,-72.919619
"659147","co","argentina","Argentina","33",NA,4.766667,-74.533333
"659148","co","argentina","Argentina","36",NA,5.777222,-74.161389
"659149","co","argentina","Argentina","38",NA,9.770647,-74.266391
"659150","co","arguello","Argüello","20",NA,1.145051,-77.452926
"659151","co","ariaitpa","Aríaitpa","17",NA,12.266667,-71.416667
"659152","co","ariari","Ariari","33",NA,4,-74.5
"659153","co","arica","Arica","01",NA,-2.133333,-71.733333
"659154","co","ariguani","Ariguaní","10",26246,10.25,-74
"659155","co","ariguani","Ariguaní","38",NA,9.849747,-74.236267
"659156","co","arihueca","Arihueca","38",NA,10.838798,-74.17074
"659157","co","arijunasahin","Aríjunasahin","17",NA,11.685833,-72.326111
"659158","co","arimaca","Arimaca","38",NA,11.126369,-74.111603
"659159","co","ariporo","Ariporo","32",NA,5.966667,-72.25
"659160","co","arirapaha","Arírapaha","17",NA,12.098579,-71.809327
"659161","co","arirapah","Arírapah","17",NA,11.628611,-72.466389
"659162","co","aritayein","Aritayeín","17",NA,11.67368,-72.736088
"659163","co","arizona","Arizona","14",NA,2.720485,-72.282198
"659164","co","arizona","Arizona","19",NA,4.043747,-72.968454
"659165","co","arizona","Arizona","35",NA,10.483333,-75.433333
"659166","co","arizona","Arizona","38",NA,10.571974,-74.136955
"659167","co","arjona","Arjona","10",NA,9.533851,-73.909244
"659168","co","arjona","Arjona","35",50406,10.254444,-75.343889
"659169","co","arma","Arma","37",NA,5.613828,-75.539322
"659170","co","armadillo","Armadillo","04",NA,10.6,-74.916667
"659171","co","armadillo numero tres","Armadillo Número Tres","04",NA,10.6,-74.916667
"659172","co","armenia","Armenia","02",2035,6.156389,-75.787222
"659173","co","armenia","Armenia","08",NA,1.590699,-75.533433
"659174","co","armenia","Armenia","12",NA,8.821111,-76.238126
"659175","co","armenia","Armenia","16",NA,3.098843,-74.941915
"659176","co","armenia","Armenia","23",315332,4.533889,-75.681111
"659177","co","armenia","Armenia","26",NA,7.139015,-73.376389
"659178","co","armenia","Armenia","27",NA,8.547699,-74.992679
"659179","co","armenia","Armenia","33",NA,4.388093,-74.785826
"659180","co","armenia","Armenia","35",NA,10.4,-75.516667
"659181","co","armenia central","Armenia Central","12",NA,8.825429,-76.254748
"659182","co","armero","Armero","28",NA,5.031034,-74.886825
"659183","co","arnania","Arnanía","26",NA,7.185556,-73.033889
"659184","co","arpajaco","Arpajaco","17",NA,12.233333,-71.266667
"659185","co","arquia","Arquía","02",NA,6.240385,-76.72837
"659186","co","arquia","Arquía","11",NA,7.981394,-77.127248
"659187","co","arquisa","Arquisa","11",NA,8.133333,-77.016667
"659188","co","arrancaplumas","Arrancaplumas","28",NA,5.2,-74.733333
"659189","co","arrastradero","Arrastradero","11",NA,5.300206,-76.33226
"659190","co","arrayanal","Arrayanal","09",NA,2.688187,-76.817139
"659191","co","arrayanal","Arrayanal","20",NA,1.528959,-77.579928
"659192","co","arrayanal","Arrayanal","23",NA,4.660278,-75.596667
"659193","co","arrayanal","Arrayanal","28",NA,4.393611,-75.453333
"659194","co","arrayan","Arrayán","16",NA,3.133889,-75.334167
"659195","co","arrayan","Arrayán","33",NA,4.556686,-73.933675
"659196","co","arrayan","Arrayan","36",NA,5.523333,-73.891389
"659197","co","arrayanes","Arrayanes","09",NA,2.693849,-76.806271
"659198","co","arrayanes","Arrayanes","16",NA,1.97283,-76.115251
"659199","co","arrayanes","Arrayanes","20",NA,0.860278,-77.543889
"659200","co","arrayanes","Arrayanes","36",NA,4.81569,-73.185843
"659201","co","arrecifal","Arrecifal","15",NA,3.634167,-69.051111
"659202","co","arrecife","Arrecife","03",NA,6.981944,-70.602778
"659203","co","arrecifes","Arrecifes","19",NA,4.188707,-73.240518
"659204","co","arriba","Arriba","29",NA,3.743858,-76.304803
"659205","co","arriba del arroyo","Arriba del Arroyo","35",NA,9.816096,-75.182901
"659206","co","arribato","Arribato","21",NA,8.435403,-72.572634
"659207","co","arribato","Arribató","24",NA,5.329458,-75.940443
"659208","co","arrieta","Arrieta","37",NA,5.553155,-75.517936
"659209","co","arrimadero","Arrimadero","12",NA,9.046287,-75.422721
"659210","co","arrocera cabezas","Arrocera Cabezas","10",NA,8.173218,-73.603674
"659211","co","arroyave","Arroyave","02",NA,6.508611,-75.600833
"659212","co","arroyo arena","Arroyo Arena","12",NA,8.532053,-75.582541
"659213","co","arroyo arena","Arroyo Arena","17",NA,11.270458,-72.909343
"659214","co","arroyo arena","Arroyo Arena","27",NA,9.369124,-75.389958
"659215","co","arroyo arena","Arroyo Arena","35",NA,9.730299,-75.169839
"659216","co","arroyo arenas","Arroyo Arenas","35",NA,9.730299,-75.169839
"659217","co","arroyo arriba","Arroyo Arriba","12",NA,8.626944,-75.650278
"659218","co","arroyo arriba","Arroyo Arriba","38",NA,9.378309,-74.509427
"659219","co","arroyo barro","Arroyo Barro","04",NA,10.7,-75.1
"659220","co","arroyo bella arena","Arroyo Bella Arena","17",NA,11.270458,-72.909343
"659221","co","arroyo cojo","Arroyo Cojo","04",NA,10.6,-74.783333
"659222","co","arroyo de piedra","Arroyo de Piedra","04",NA,10.629467,-75.10447
"659223","co","arroyo de piedra","Arroyo de Piedra","35",NA,10.607486,-75.446295
"659224","co","arroyo de piedras","Arroyo de Piedras","04",NA,10.629467,-75.10447
"659225","co","arroyo grande","Arroyo Grande","04",NA,10.733333,-74.883333
"659226","co","arroyo grande","Arroyo Grande","27",NA,9.516667,-75.4
"659227","co","arroyo grande","Arroyo Grande","35",NA,10.656282,-75.347262
"659228","co","arroyo hondo","Arroyo Hondo","04",NA,10.583333,-74.866667
"659229","co","arroyo hondo","Arroyo Hondo","12",NA,8.990425,-75.366142
"659230","co","arroyo hondo","Arroyo Hondo","17",NA,10.742348,-72.815522
"659231","co","arroyo hondo","Arroyo Hondo","29",NA,3.522222,-76.506389
"659232","co","arroyo hondo","Arroyo Hondo","35",NA,10.252204,-75.019801
"659233","co","arroyohondo","Arroyohondo","35",3622,10.252204,-75.019801
"659234","co","arroyo hondo","Arroyo Hondo","37",NA,5.514642,-75.777541
"659235","co","arroyo la burra","Arroyo La Burra","12",NA,8.602595,-75.621675
"659236","co","arroyon","Arroyón","12",NA,8.311895,-75.735571
"659237","co","arroyo negro","Arroyo Negro","04",NA,10.569062,-75.15051
"659238","co","arroyo negro","Arroyo Negro","12",NA,8.723409,-75.687041
"659239","co","arroyo piedras","Arroyo Piedras","04",NA,10.629467,-75.10447
"659240","co","arroyuelo","Arroyuelo","28",NA,3.900278,-75.205278
"659241","co","arrozcrudo","Arrozcrudo","38",NA,9.347425,-74.388844
"659242","co","artonal","Artonal","29",NA,3.452414,-76.286426
"659243","co","aruachani","Arúachani","17",NA,12.2,-71.3
"659244","co","aruahin","Arúahin","17",NA,11.658455,-72.608839
"659245","co","aruatapahi","Arúatapahi","17",NA,11.570894,-72.741058
"659246","co","aruatapahin","Aruatapahin","17",NA,12.361473,-71.659509
"659247","co","aruatapay","Arúatapay","17",NA,12.2,-71.233333
"659248","co","aruba","Aruba","17",NA,10.541111,-72.9175
"659249","co","arumaque","Arumaque","38",NA,10.65,-73.683333
"659250","co","arusi","Arusí","11",NA,5.595778,-77.475062
"659251","co","aruzi","Aruzí","11",NA,5.595778,-77.475062
"659252","co","asamblea","Asamblea","12",NA,8.446223,-75.920296
"659253","co","as de copas","As de Copas","36",NA,5.9225,-74.396667
"659254","co","aserradero","Aserradero","12",NA,9.350615,-75.685121
"659255","co","aserradero","Aserradero","19",NA,4.14562,-72.841735
"659256","co","aserradero","Aserradero","38",NA,10.568191,-74.672807
"659257","co","aserrio el carmen","Aserrío El Carmen","29",NA,3.316667,-77.3275
"659258","co","aserrio la fragua","Aserrío La Fragua","29",NA,3.494158,-77.227277
"659259","co","aserrio primavera","Aserrío Primavera","29",NA,3.327778,-77.345833
"659260","co","aserrio tambor","Aserrío Tambor","09",NA,3.132841,-77.498663
"659261","co","asia","Asia","37",NA,5.066667,-75.85
"659262","co","asientos","Asientos","02",NA,6.683333,-75.8
"659263","co","asi es la vida","Así es La Vida","10",NA,9.985276,-73.601874
"659264","co","asnazu","Asnazu","09",NA,3.05,-76.666667
"659265","co","aspacica","Aspacica","21",NA,8.277222,-73.186389
"659266","co","aspasica","Aspasica","21",NA,8.277222,-73.186389
"659267","co","astanay","Astanay","17",NA,12.316667,-71.283333
"659268","co","astaron","Astarón","20",NA,1.35,-77.533333
"659269","co","astelia","Astelia","29",NA,4.241957,-75.964619
"659270","co","astillero","Astillero","10",NA,9.230998,-73.527902
"659271","co","astillero","Astillero","21",NA,8.127778,-72.586111
"659272","co","astillero","Astillero","35",NA,8.288117,-74.611356
"659273","co","astilleros","Astilleros","10",NA,8.538474,-73.496078
"659274","co","astilleros","Astilleros","21",NA,8.127778,-72.586111
"659275","co","astorga","Astorga","33",NA,5.05,-73.866667
"659276","co","astrea","Astrea","10",8996,9.498276,-73.975914
"659277","co","asturia","Asturia","29",NA,3.729722,-76.2925
"659278","co","asturias","Asturias","33",NA,4.09,-74.398889
"659279","co","asuncion","Asunción","17",NA,11.253889,-73.263056
"659280","co","atachom","Atáchom","17",NA,11.566667,-72.733333
"659281","co","ataco","Ataco","28",4105,3.591466,-75.381776
"659282","co","atajapo","Atájapo","17",NA,12.032494,-71.867266
"659283","co","atalaya","Atalaya","16",NA,2.101944,-75.711111
"659284","co","atanasio","Atanasio","03",NA,6.416667,-70.516667
"659285","co","atanques","Atánques","10",NA,10.701438,-73.35203
"659286","co","atanquez","Atanquez","10",NA,10.701438,-73.35203
"659287","co","atara","Atara","35",NA,7.683333,-74.466667
"659288","co","atarraya","Atarraya","24",NA,5.425,-75.929167
"659289","co","atascosas","Atascosas","35",NA,10.416667,-75.35
"659290","co","atasure","Atasure","17",NA,11.312786,-72.367705
"659291","co","atenas","Atenas","01",NA,-0.6,-72.9
"659292","co","atenas","Atenas","26",NA,7.026389,-73.809444
"659293","co","atescos","Atescos","35",NA,10.416667,-75.35
"659294","co","atfanapu","Atfanapu","17",NA,12.341613,-71.715714
"659295","co","atiquimaqueca","Atiquimaqueca","10",NA,10.584011,-73.567988
"659296","co","atkusirro","Atkusirro","17",NA,11.437065,-72.581789
"659297","co","atlantico","Atlántico","38",NA,10.453106,-74.414245
"659298","co","atpajauohu","Atpajauohu","17",NA,12.233333,-71.266667
"659299","co","atpana","Atpana","17",NA,11.201667,-72.238333
"659300","co","atpatirro","Atpatirro","17",NA,12.216667,-71.216667
"659301","co","atrato","Atrato","38",NA,10.066667,-74.2
"659302","co","atuncela","Atuncela","29",NA,3.737778,-76.676389
"659303","co","atunsuela","Atunsuela","29",NA,3.737778,-76.676389
"659304","co","augura","Augura","02",NA,7.823889,-76.649722
"659305","co","aujero","Aujero","17",NA,11.496667,-72.886667
"659306","co","auji","Aují","29",NA,3.618611,-76.108889
"659307","co","aullama","Aullama","17",NA,11.858147,-72.291465
"659308","co","aural","Aural","36",NA,5.866111,-73.518056
"659309","co","aures","Aures","09",NA,3.1,-76.75
"659310","co","aures","Aures","29",NA,4.237853,-75.83312
"659311","co","aurora","Aurora","10",NA,9.464525,-73.561087
"659312","co","aurora","Aurora","19",NA,4.24111,-72.366147
"659313","co","aurora","Aurora","20",NA,1.766667,-77.95
"659314","co","aurra","Aurra","02",NA,6.510562,-75.803399
"659315","co","australia","Australia","12",NA,8.713333,-76.107222
"659316","co","australia","Australia","29",NA,3.915833,-75.882778
"659317","co","australia","Australia","36",NA,5.853206,-72.544955
"659318","co","auyama","Auyama","17",NA,11.858147,-72.291465
"659319","co","auyamal","Auyamal","04",NA,10.449661,-75.048418
"659320","co","auyana","Auyana","17",NA,11.858147,-72.291465
"659321","co","avelinere","Avelinere","03",NA,6.873245,-70.594996
"659322","co","avelinero","Avelinero","03",NA,6.873245,-70.594996
"659323","co","avendano la antigua","Avendaño La Antigua","26",NA,6.02863,-73.041186
"659324","co","avicola brisas de huila","Avícola Brisas de Huila","04",NA,10.987277,-74.851501
"659325","co","avila","Ávila","01",NA,-1.039722,-70.338056
"659326","co","avimi","Avimi","31",NA,4.329444,-70.123611
"659327","co","avingue","Avingüe","10",NA,10.7815,-73.374615
"659328","co","avirama","Avirama","09",NA,2.676096,-76.014357
"659329","co","ayacucho","Ayacucho","04",NA,10.75,-74.916667
"659330","co","ayacucho","Ayacucho","10",NA,8.600535,-73.585073
"659331","co","ayacucho","Ayacucho","12",NA,8.189681,-76.06661
"659332","co","ayacucho","Ayacucho","21",NA,7.8,-72.583333
"659333","co","ayacucho","Ayacucho","25",NA,13.35,-81.383333
"659334","co","ayacucho","Ayacucho","28",NA,5.066342,-74.840962
"659335","co","ayacucho","Ayacucho","29",NA,3.487521,-76.187722
"659336","co","ayacucho","Ayacucho","32",NA,4.861592,-73.047554
"659337","co","ayacucho","Ayacucho","33",NA,5.084741,-74.599767
"659338","co","ayapel","Ayapel","12",22602,8.313721,-75.139822
"659339","co","ayecta","Ayecta","10",NA,10.54777,-73.562873
"659340","co","azcarete","Azcárete","29",NA,3.841667,-76.327222
"659341","co","azoque","Azoque","20",NA,1.422689,-77.368953
"659342","co","azucar","Azúcar","20",NA,1.3,-78.566667
"659343","co","azucena","Azucena","04",NA,10.8,-75.1
"659344","co","azucenos","Azucenos","02",NA,6.608333,-75.665833
"659345","co","azufrera","Azufrera","24",NA,4.783333,-75.45
"659346","co","azul boqueron","Azul Boquerón","36",NA,5.683429,-72.728909
"659347","co","azules","Azules","02",NA,6.558611,-75.958056
"659348","co","babega","Bábega","21",NA,7.183333,-72.733333
"659349","co","babillas","Babillas","12",NA,8.806619,-75.800562
"659350","co","babilonia","Babilonia","10",NA,8.433333,-73.75
"659351","co","babilonia","Babilonia","17",NA,10.553611,-72.904444
"659352","co","babilonia","Babilonia","21",NA,7.633333,-72.916667
"659353","co","babitas","Babitas","03",NA,7.030685,-71.59591
"659354","co","baborreal","Baborreal","26",NA,7.005289,-73.166597
"659355","co","bachira","Báchira","36",NA,6.696556,-72.183256
"659356","co","badillo","Badillo","02",NA,7.233333,-75.933333
"659357","co","badillo","Badillo","10",NA,10.630113,-73.128502
"659358","co","badillo","Badillo","26",NA,7.969025,-73.851103
"659359","co","bagado","Bagadó","11",4561,5.411637,-76.415202
"659360","co","bagalal","Bagalal","21",NA,7.522679,-72.489283
"659361","co","baganique centro","Baganique Centro","36",NA,5.345511,-73.351883
"659362","co","bagaza","Bagaza","33",NA,4.984984,-74.484266
"659363","co","bagazal","Bagazal","33",NA,4.8,-74.5
"659364","co","bagre","Bagre","02",NA,7.083333,-74.6
"659365","co","bagrero","Bagrero","09",NA,3.167067,-77.535265
"659366","co","bahaire","Bahaire","35",NA,10.283333,-75.516667
"659367","co","bahia honda","Bahía Honda","17",NA,12.318105,-71.789231
"659368","co","bahia honda","Bahía Honda","38",NA,10.124113,-74.8631
"659369","co","bahia hondita","Bahía Hondita","17",NA,12.414749,-71.729293
"659370","co","bahia solano","Bahía Solano","11",NA,6.22622,-77.404393
"659371","co","bahia suroeste","Bahía Suroeste","25",NA,13.333333,-81.383333
"659372","co","bailey","Bailey","25",NA,13.35,-81.35
"659373","co","bajira","Bajira","02",NA,7.3725,-76.714722
"659374","co","bajo barandas","Bajo Barandas","22",NA,0.841685,-75.7701
"659375","co","bajo baudo","Bajo Baudó","11",6168,4.953336,-77.365975
"659376","co","bajo caldas","Bajo Caldas","08",NA,1.643321,-75.641074
"659377","co","bajo calima","Bajo Calima","29",NA,3.996389,-76.974444
"659378","co","bajo casanare","Bajo Casanare","20",NA,1.120736,-77.197573
"659379","co","bajo cebadal","Bajo Cebadal","20",NA,1.116667,-77.35
"659380","co","bajo cielo","Bajo Cielo","16",NA,2.759722,-75.607222
"659381","co","bajo corazon","Bajo Corazon","22",NA,1.033994,-76.647799
"659382","co","bajo cuque","Bajo Cuque","11",NA,8.116667,-77
"659383","co","bajo de felipe","Bajo de Felipe","04",NA,10.426111,-75.120833
"659384","co","bajo de los caballos","Bajo de Los Caballos","35",NA,9.783333,-75.016667
"659385","co","bajo de unira","Bajo de Unira","04",NA,10.7,-75.083333
"659386","co","bajo espanol","Bajo Español","37",NA,4.943611,-75.696389
"659387","co","bajo frutal","Bajo Frutal","16",NA,1.797066,-76.256432
"659388","co","bajo grande","Bajo Grande","12",NA,8.74289,-75.527903
"659389","co","bajo grande","Bajo Grande","27",NA,8.672181,-74.855172
"659390","co","bajo grande","Bajo Grande","35",NA,9.685264,-75.223956
"659391","co","bajogrande","Bajogrande","35",NA,9.833333,-74.966667
"659392","co","bajo grande","Bajo Grande","35",NA,9.836127,-74.961811
"659393","co","bajo jordan","Bajo Jordan","26",NA,6.209875,-73.746178
"659394","co","bajo los babilleros","Bajo Los Babilleros","12",NA,8.4,-75.316667
"659395","co","bajo pato","Bajo Pato","08",NA,2.591944,-74.761389
"659396","co","bajo planes","Bajo Planes","16",NA,1.988279,-76.160172
"659397","co","bajo primavera","Bajo Primavera","12",NA,8.913611,-76.217222
"659398","co","bajo sabaletas","Bajo Sabaletas","29",NA,3.816667,-76.616667
"659399","co","bajos de chiquito","Bajos de Chiquito","35",NA,10.6,-75.333333
"659400","co","bajos de gallego","Bajos de Gallego","04",NA,10.55,-74.883333
"659401","co","bajo sigui","Bajo Sigüí","09",NA,2.866667,-77.183333
"659402","co","bajo tapialquer","Bajo Tapialquer","20",NA,1.066667,-77.316667
"659403","co","bajo viejo","Bajo Viejo","27",NA,9.322542,-75.36694
"659404","co","bajo zabaletas","Bajo Zabaletas","29",NA,3.816667,-76.616667
"659405","co","bakiro","Bakiro","15",NA,2.770399,-69.18886
"659406","co","balalaica","Balalaica","20",NA,1.216667,-77.666667
"659407","co","balalaika","Balalaika","08",NA,1.099292,-75.680448
"659408","co","balalaika","Balalaika","20",NA,1.216667,-77.666667
"659409","co","balastera","Balastera","02",NA,6.785833,-75.548889
"659410","co","balastera","Balastera","08",NA,1.580864,-75.651513
"659411","co","balastera","Balastera","19",NA,2.699638,-72.722981
"659412","co","balastera","Balastera","28",NA,4.277879,-74.820239
"659413","co","balastera","Balastera","29",NA,3.460882,-76.567632
"659414","co","balaustrada","Balaustrada","27",NA,9.663082,-75.411427
"659415","co","balbanera","Balbanera","20",NA,1.35,-77.833333
"659416","co","balboa","Balboa","09",6272,2.039556,-77.216839
"659417","co","balboa","Balboa","11",NA,8.280837,-77.141531
"659418","co","balboa","Balboa","24",2302,4.951667,-75.957222
"659419","co","balcanes","Balcanes","08",NA,1.297365,-75.588548
"659420","co","balcanes","Balcanes","21",NA,8.539863,-73.332313
"659421","co","balcanes","Balcanes","29",NA,3.849722,-76.09
"659422","co","balcon","Balcón","36",NA,5.528611,-74.195
"659423","co","balconcitos","Balconcitos","10",NA,8.356424,-73.697697
"659424","co","balconcitos","Balconcitos","28",NA,4.07179,-74.526462
"659425","co","balconcitos","Balconcitos","36",NA,5.674552,-73.836811
"659426","co","balcon cruz","Balcón Cruz","09",NA,1.931222,-76.750556
"659427","co","balconda","Balconda","02",NA,7.23722,-75.202876
"659428","co","balcones","Balcones","21",NA,8.321111,-73.075556
"659429","co","balcones","Balcones","26",NA,6.298534,-73.480631
"659430","co","balcones","Balcones","28",NA,3.71977,-74.777338
"659431","co","balcones","Balcones","29",NA,3.693333,-76.034722
"659432","co","balcones","Balcones","36",NA,4.764763,-73.222553
"659433","co","baldin","Baldín","35",NA,10.416667,-75.416667
"659434","co","baleon","Baleon","20",NA,1.3,-77.533333
"659435","co","balestas","Balestas","35",NA,10.216101,-75.438599
"659436","co","balkanes","Balkanes","29",NA,4.516667,-76.366667
"659437","co","ballenato","Ballenato","20",NA,1.375,-78.599444
"659438","co","ballestas","Ballestas","35",NA,10.216101,-75.438599
"659439","co","ballesteros","Ballesteros","04",NA,10.716667,-74.833333
"659440","co","ballesteros","Ballesteros","29",NA,4.068333,-76.272778
"659441","co","ballesteros","Ballesteros","38",NA,9.602254,-74.386635
"659442","co","balmoral","Balmoral","32",NA,4.883054,-72.360365
"659443","co","balneario acapulco","Balneario Acapulco","19",NA,4.12025,-73.59115
"659444","co","balneario de concha","Balneario de Concha","38",NA,11.3,-74.15
"659445","co","balneario de villa concha","Balneario de Villa Concha","38",NA,11.3,-74.15
"659446","co","balooncito","Balooncito","33",NA,5.002121,-74.584358
"659447","co","balsa","Balsa","12",NA,8.158374,-76.077866
"659448","co","balsa","Balsa","33",NA,5.333333,-73.766667
"659449","co","balsal","Balsal","02",NA,6.510278,-75.911389
"659450","co","balsamina","Balsamina","21",NA,8.121667,-72.879167
"659451","co","balsamo","Bálsamo","26",NA,6.733333,-73.6
"659452","co","balsamo","Bálsamo","35",NA,10.316111,-75.283056
"659453","co","balsamo","Bálsamo","38",NA,10.201944,-74.739444
"659454","co","balsares","Balsares","28",NA,4.192316,-75.340963
"659455","co","balseadero","Balseadero","02",NA,6.248056,-74.880278
"659456","co","balsilla","Balsilla","03",NA,6.616667,-71.733333
"659457","co","balsilla","Balsilla","16",NA,3.283333,-75.233333
"659458","co","balsillas","Balsillas","08",NA,1.19891,-75.606011
"659459","co","balsillas","Balsillas","28",NA,3.581111,-75.311389
"659460","co","balsistas","Balsistas","09",NA,2.216667,-77.7
"659461","co","balsita","Balsita","33",NA,4.357872,-74.716667
"659462","co","balsitas","Balsitas","09",NA,2.216667,-77.7
"659463","co","balsora","Balsora","08",NA,1.294997,-75.596992
"659464","co","balsora","Balsora","23",NA,4.221389,-75.688056
"659465","co","balsora","Balsora","28",NA,3.396667,-75.664167
"659466","co","balsora","Balsora","29",NA,3.838611,-76.008611
"659467","co","balsora","Balsora","32",NA,4.788611,-72.267778
"659468","co","baltimore","Baltimore","28",NA,4.104444,-75.579444
"659469","co","baltimore","Baltimore","32",NA,4.881868,-72.595553
"659470","co","baltimore","Baltimore","33",NA,4.666667,-74.516667
"659471","co","baltimores","Baltimores","33",NA,4.666667,-74.516667
"659472","co","balzac","Balzac","35",NA,10.595892,-75.291584
"659473","co","banadia","Banadía","03",NA,6.9,-71.85
"659474","co","bananera","Bananera","02",NA,8.074546,-76.662423
"659475","co","bananera el porvenir","Bananera El Porvenir","02",NA,8.113549,-76.698564
"659476","co","bananera la caleta","Bananera La Caleta","02",NA,8.087956,-76.672845
"659477","co","banco amarillo","Banco Amarillo","03",NA,7.00114,-70.931951
"659478","co","banco amarilo","Banco Amarilo","03",NA,7.00114,-70.931951
"659479","co","banco arena","Banco Arena","21",NA,8.358333,-72.48
"659480","co","banco","Banco","03",NA,6.280164,-71.897169
"659481","co","banco","Banco","04",NA,10.468245,-75.1615
"659482","co","banco","Banco","29",NA,4.516667,-76.05
"659483","co","banco","Banco","32",NA,5.316667,-72.4
"659484","co","banco","Banco","38",NA,9.001137,-73.975807
"659485","co","banco de arena","Banco de Arena","21",NA,8.358333,-72.48
"659486","co","banco de los burros","Banco de los Burros","32",NA,5.318009,-72.151171
"659487","co","bandera","Bandera","08",NA,2.11,-74.884722
"659488","co","bandera","Bandera","17",NA,11.27481,-72.385323
"659489","co","banganita","Banganita","17",NA,10.927984,-72.872496
"659490","co","bangano","Bangaño","12",NA,8.575833,-75.693333
"659491","co","banquetas","Banquetas","32",NA,4.983333,-72.133333
"659492","co","barabaca","Barabaca","31",NA,4.466667,-69.716667
"659493","co","barahona","Barahona","10",NA,9.34,-73.546389
"659494","co","barahona","Barahona","35",NA,9.14823,-74.837417
"659495","co","baramona","Baramona","10",NA,9.34,-73.546389
"659496","co","barandilla","Barandilla","12",NA,8.403511,-74.983865
"659497","co","barandillas","Barandillas","28",NA,3.466667,-75.116667
"659498","co","barandillas","Barandillas","33",NA,5.016667,-73.966667
"659499","co","barandillo","Barandillo","28",NA,3.466667,-75.116667
"659500","co","baranoa","Baranoa","04",44079,10.794084,-74.9164
"659501","co","baranoa","Baranoa","35",NA,8.983333,-74.3
"659502","co","baraya","Baraya","09",NA,2.378313,-76.963487
"659503","co","baraya","Baraya","16",4402,3.153333,-75.053056
"659504","co","baraya","Baraya","26",NA,6.321947,-73.411237
"659505","co","baraya","Baraya","27",NA,9.074399,-74.984215
"659506","co","barbacoa","Barbacoa","12",NA,9.251285,-75.593463
"659507","co","barbacoas","Barbacoas","02",NA,6.926111,-75.828333
"659508","co","barbacoas","Barbacoas","12",NA,9.251285,-75.593463
"659509","co","barbacoas","Barbacoas","17",NA,11.237124,-72.901377
"659510","co","barbacoas","Barbacoas","20",7634,1.671536,-78.139782
"659511","co","barbacoas","Barbacoas","26",NA,6.716667,-74.2
"659512","co","barbara","Bárbara","01",NA,-0.883387,-72.501295
"659513","co","barbara","Bárbara","20",NA,2.083333,-77.516667
"659514","co","barbascal","Barbascal","19",NA,3.683333,-73.433333
"659515","co","barbascal","Barbascal","36",NA,5.788611,-74.2025
"659516","co","barbascales","Barbascales","33",NA,5.162193,-74.549236
"659517","co","barbascalito","Barbascalito","02",NA,7.233333,-74.45
"659518","co","barbascalito mina","Barbascalito Mina","02",NA,7.233333,-74.45
"659519","co","barbasco","Barbasco","33",NA,4.483757,-73.257978
"659520","co","barberia","Barbería","02",NA,7.932622,-74.842934
"659521","co","barbillas","Barbillas","09",NA,2.007067,-76.679261
"659522","co","barbosa","Barbosa","02",16707,6.438088,-75.331355
"659523","co","barbosa","Barbosa","26",20373,5.931675,-73.615065
"659524","co","barbosa","Barbosa","35",NA,9.026871,-74.641227
"659525","co","barboza","Barboza","35",NA,9.026871,-74.641227
"659526","co","barbua","Barbua","11",NA,8.573473,-77.296121
"659527","co","barbu","Barbú","38",NA,9.635204,-74.769037
"659528","co","barbudo","Barbudo","38",NA,9.635204,-74.769037
"659529","co","barbur","Barbur","36",NA,5.660339,-74.062116
"659530","co","barcelona baja","Barcelona Baja","23",NA,4.606389,-75.690556
"659531","co","barcelona","Barcelona","02",NA,6.233333,-75.583333
"659532","co","barcelona","Barcelona","08",NA,1.646043,-75.794683
"659533","co","barcelona","Barcelona","12",NA,8.582219,-75.12187
"659534","co","barcelona","Barcelona","19",NA,4.068563,-73.588399
"659535","co","barcelona","Barcelona","23",NA,4.136389,-75.786944
"659536","co","barcelona","Barcelona","26",NA,7.234985,-73.146804
"659537","co","barcelona","Barcelona","28",NA,3.7975,-75.555
"659538","co","barcelona","Barcelona","38",NA,9.503138,-74.661259
"659539","co","barcino","Barcino","02",NA,5.981389,-75.538333
"659540","co","barco","Barco","21",NA,8.348889,-72.442222
"659541","co","barco","Barco","29",NA,3.379811,-77.133003
"659542","co","barcos","Barcos","29",NA,3.379811,-77.133003
"659543","co","barcu","Barcu","29",NA,3.379811,-77.133003
"659544","co","barichara","Barichara","26",4150,6.635725,-73.222824
"659545","co","baritalia","Baritalia","03",NA,6.55,-71.633333
"659546","co","barley","Barley","32",NA,4.8,-72.566667
"659547","co","barlovento","Barlovento","10",NA,9.494155,-73.687546
"659548","co","barlovento","Barlovento","21",NA,8.166111,-72.394444
"659549","co","barlovento","Barlovento","26",NA,6.446674,-73.289199
"659550","co","barquena","Barqueña","12",NA,8.887222,-76.006389
"659551","co","barquerena","Barquereña","03",NA,6.4501,-71.12154
"659552","co","barracon","Barracón","02",NA,6.822909,-76.047829
"659553","co","barracon","Barracón","09",NA,3.057474,-76.580309
"659554","co","barracon","Barracón","17",NA,10.91815,-72.772132
"659555","co","barragan","Barragán","16",NA,3.005833,-75.188611
"659556","co","barragan","Barragán","23",NA,4.345509,-75.788202
"659557","co","barragan","Barragán","29",NA,4.034167,-75.885833
"659558","co","barragan","Barragán","36",NA,5.688056,-73.5775
"659559","co","barranca","Barranca","10",NA,8.011447,-73.720415
"659560","co","barranca","Barranca","17",NA,11.831967,-72.140231
"659561","co","barranca","Barranca","19",NA,4.133333,-73.183333
"659562","co","barranca","Barranca","26",NA,6.033333,-73.7
"659563","co","barranca","Barranca","27",NA,9.907152,-75.537332
"659564","co","barranca","Barranca","32",NA,5.9,-71.8
"659565","co","barranca","Barranca","35",NA,9.178887,-74.852896
"659566","co","barranca","Barranca","38",NA,10.195587,-74.935815
"659567","co","barrancabermeja","Barrancabermeja","26",191406,7.065278,-73.854722
"659568","co","barranca de lebrija","Barranca de Lebrija","10",NA,8.011447,-73.720415
"659569","co","barranca de upia","Barranca de Upía","19",1178,4.569634,-72.966758
"659570","co","barranca de upta","Barranca de Upta","19",NA,4.569634,-72.966758
"659571","co","barranca lebrija","Barranca Lebrija","10",NA,8.011447,-73.720415
"659572","co","barranca nueva","Barranca Nueva","38",NA,10.195587,-74.935815
"659573","co","barrancas","Barrancas","16",NA,2.12597,-75.798065
"659574","co","barrancas","Barrancas","17",17350,10.957561,-72.787693
"659575","co","barrancas","Barrancas","19",NA,4.133333,-73.183333
"659576","co","barrancas","Barrancas","21",NA,8.25497,-72.489561
"659577","co","barrancas","Barrancas","29",NA,3.543889,-76.236667
"659578","co","barrancas","Barrancas","32",NA,4.608362,-72.04426
"659579","co","barrancas de san nicolas","Barrancas de San Nicolás","04",NA,10.963889,-74.796389
"659580","co","barranca vieja","Barranca Vieja","38",NA,10.15,-74.933333
"659581","co","barranco","Barranco","20",NA,1.276026,-77.380842
"659582","co","barranco","Barranco","27",NA,9.907152,-75.537332
"659583","co","barranco","Barranco","29",NA,3.701725,-76.229033
"659584","co","barranco","Barranco","35",NA,8.945973,-74.10647
"659585","co","barranco","Barranco","38",NA,9.143398,-73.98949
"659586","co","barranco ceiba","Barranco Ceiba","14",NA,2.817617,-71.645598
"659587","co","barranco colorado","Barranco Colorado","14",NA,2.812714,-71.7326
"659588","co","barranco colorado","Barranco Colorado","19",NA,2.820701,-73.124268
"659589","co","barranco de loba","Barranco de Loba","35",5933,8.945973,-74.10647
"659590","co","barranco de yuca","Barranco de Yuca","35",NA,9.178887,-74.852896
"659591","co","barrancomina","Barrancomina","15",NA,3.484167,-69.810833
"659592","co","barranco minas","Barranco Minas","15",NA,3.484167,-69.810833
"659593","co","barranco murcielago","Barranco Murciélago","15",NA,3.573611,-69.585833
"659594","co","barrancon","Barrancón","02",NA,8.415933,-76.757204
"659595","co","barrancon","Barrancón","03",NA,6.953753,-70.247222
"659596","co","barrancon","Barrancón","09",NA,2.872874,-77.594076
"659597","co","barrancon","Barrancón","14",NA,2.603759,-72.57621
"659598","co","barranco picure","Barranco Picure","15",NA,3.568056,-69.641111
"659599","co","barranco tigre","Barranco Tigre","15",NA,3.600278,-68.274167
"659600","co","barranquilla","Barranquilla","01",NA,-2.410773,-70.576229
"659601","co","barranquilla","Barranquilla","04",1380437,10.963889,-74.796389
"659602","co","barranquilla","Barranquilla","14",NA,1.53906,-72.288597
"659603","co","barranquilla","Barranquilla","15",NA,2.975278,-68.955
"659604","co","barranquilla","Barranquilla","33",NA,4.966667,-74.516667
"659605","co","barranquilla betania","Barranquilla Betania","02",NA,7.08,-75.935556
"659606","co","barranquillita","Barranquillita","02",NA,7.573889,-76.702778
"659607","co","barranquillita","Barranquillita","12",NA,8.623461,-75.726833
"659608","co","barranquillita","Barranquillita","14",NA,1.53906,-72.288597
"659609","co","barranquita","Barranquita","26",NA,7.083333,-73.9
"659610","co","barranquito","Barranquito","26",NA,7.1,-73.9
"659611","co","barras","Barras","01",NA,-1.757,-73.203868
"659612","co","barrera","Barrera","20",NA,2.554276,-78.472854
"659613","co","barrerita","Barrerita","20",NA,2.45,-78.55
"659614","co","barrial","Barrial","20",NA,0.825647,-77.661934
"659615","co","barriales","Barríales","26",NA,7.290556,-73.292778
"659616","co","barrialito","Barrialito","17",NA,10.971414,-73.084089
"659617","co","barrialitos","Barrialitos","21",NA,8.438273,-73.077879
"659618","co","barrialosa","Barrialosa","28",NA,4.466667,-74.8
"659619","co","barrientos","Barrientos","21",NA,7.683333,-72.8
"659620","co","barrigon","Barrigón","19",NA,4.166667,-73.016667
"659621","co","barrio abbas turbay","Barrio Abbas Turbay","08",NA,1.621889,-75.600641
"659622","co","barrio alfonso lopez","Barrio Alfonso Lopez","08",NA,1.612824,-75.618664
"659623","co","barrio ana maria","Barrio Ana María","08",NA,1.599831,-75.605404
"659624","co","barrio atalaya","Barrio Atalaya","08",NA,1.627473,-75.605391
"659625","co","barrio bella vista","Barrio Bella Vista","08",NA,1.598145,-75.599039
"659626","co","barrio bellavista","Barrio Bellavista","08",NA,1.598511,-75.602488
"659627","co","barrio bello horizonte","Barrio Bello Horizonte","08",NA,1.630254,-75.594271
"659628","co","barrio berlin malvinas","Barrio Berlin Malvinas","08",NA,1.614166,-75.603923
"659629","co","barrio bocagrande","Barrio Bocagrande","35",NA,10.399154,-75.560994
"659630","co","barrio boca grande","Barrio Boca Grande","35",NA,10.399154,-75.560994
"659631","co","barrio bocanegra","Barrio Bocanegra","08",NA,1.609451,-75.60005
"659632","co","barrio bolivariano","Barrio Bolivariano","29",NA,3.471044,-76.514602
"659633","co","barrio boyaca","Barrio Boyacá","34",NA,4.690356,-74.112428
"659634","co","barrio brisas del hacha","Barrio Brisas del Hacha","08",NA,1.630063,-75.607598
"659635","co","barrio bruselas","Barrio Bruselas","08",NA,1.594582,-75.583562
"659636","co","barrio buenavista","Barrio Buenavista","29",NA,3.876735,-77.022774
"659637","co","barrio buenos aires","Barrio Buenos Aires","04",NA,10.933333,-74.8
"659638","co","barrio buenos aires","Barrio Buenos Aires","08",NA,1.621838,-75.608496
"659639","co","barrio caiman","Barrio Caiman","35",NA,10.416667,-75.5
"659640","co","barrio canapote","Barrio Canapote","35",NA,10.45,-75.533333
"659641","co","barrio castilla","Barrio Castilla","02",NA,6.263188,-75.604665
"659642","co","barrio centenario","Barrio Centenario","20",NA,0.828552,-77.625553
"659643","co","barrio cerero","Barrio Cerero","08",NA,1.605833,-75.603803
"659644","co","barrio chanon","Barrio Chanon","08",NA,1.595986,-75.596791
"659645","co","barrio circama","Barrio Circama","08",NA,1.607229,-75.615507
"659646","co","barrio circasia","Barrio Circasia","08",NA,1.609731,-75.616475
"659647","co","barrio ciudad jardin","Barrio Ciudad Jardín","08",NA,1.610641,-75.6083
"659648","co","barrio costa hermosa","Barrio Costa Hermosa","03",NA,7.072778,-70.711944
"659649","co","barrio crespo","Barrio Crespo","35",NA,10.439444,-75.518889
"659650","co","barrio cundi","Barrio Cundi","38",NA,11.233333,-74.2
"659651","co","barrio de agosto","Barrio de Agosto","08",NA,1.618388,-75.610048
"659652","co","barrio de crespo","Barrio de Crespo","35",NA,10.439444,-75.518889
"659653","co","barrio el bosque","Barrio El Bosque","35",NA,10.383333,-75.533333
"659654","co","barrio el cunduy","Barrio El Cunduy","08",NA,1.634158,-75.603758
"659655","co","barrio el eden","Barrio El Eden","08",NA,1.621781,-75.598618
"659656","co","barrio el guamal","Barrio El Guamal","08",NA,1.608207,-75.613931
"659657","co","barrio el paraiso","Barrio El Paraíso","08",NA,1.62121,-75.599747
"659658","co","barrio el poblado","Barrio El Poblado","02",NA,6.210332,-75.572399
"659659","co","barrio el prado","Barrio El Prado","08",NA,1.614245,-75.609313
"659660","co","barrio el prado","Barrio El Prado","12",NA,8.896461,-75.7833
"659661","co","barrio el prado","Barrio El Prado","35",NA,10.4,-75.516667
"659662","co","barrio el prado","Barrio El Prado","38",NA,11.233333,-74.216667
"659663","co","barrio el rincon de la estrella","Barrio El Rincón de La Estrella","08",NA,1.624434,-75.601153
"659664","co","barrio el rosal","Barrio El Rosal","08",NA,1.606228,-75.601323
"659665","co","barrio el triunfo malvinas","Barrio El Triunfo Malvinas","08",NA,1.615875,-75.601248
"659666","co","barrio estrella baja","Barrio Estrella Baja","08",NA,1.614693,-75.61119
"659667","co","barrio florencia la nueva","Barrio Florencia La Nueva","08",NA,1.603128,-75.600545
"659668","co","barrio gaitan","Barrio Gaitan","08",NA,1.609506,-75.602516
"659669","co","barrio galan","Barrio Galan","08",NA,1.611159,-75.61631
"659670","co","barrio jorge e. gaitan","Barrio Jorge E. Gaitan","08",NA,1.621848,-75.605927
"659671","co","barrio jorge eliecer gaitan","Barrio Jorge Eliecer Gaitan","08",NA,1.610568,-75.616814
"659672","co","barrio juan xxiii","Barrio Juan XXIII","08",NA,1.608711,-75.609293
"659673","co","barrio julio cesar turbay","Barrio Julio Cesar Turbay","08",NA,1.633195,-75.602927
"659674","co","barrio la bocana","Barrio La Bocana","08",NA,1.609387,-75.614992
"659675","co","barrio la campina","Barrio La Campiña","29",NA,3.480506,-76.5323
"659676","co","barrio la consolata","Barrio La Consolata","08",NA,1.621328,-75.616436
"659677","co","barrio la esmeralda","Barrio La Esmeralda","08",NA,1.594052,-75.601011
"659678","co","barrio la estrella","Barrio La Estrella","08",NA,1.613922,-75.60715
"659679","co","barrio la floresta","Barrio La Floresta","08",NA,1.605184,-75.615774
"659680","co","barrio la florida","Barrio La Florida","34",NA,4.7,-74.116667
"659681","co","barrio la fortaleza","Barrio La Fortaleza","29",NA,3.422919,-76.514839
"659682","co","barrio la granja","Barrio La Granja","34",NA,4.700422,-74.099852
"659683","co","barrio la independencia","Barrio La Independencia","29",NA,3.417003,-76.520364
"659684","co","barrio la libertad","Barrio La Libertad","08",NA,1.623502,-75.610204
"659685","co","barrio la paz","Barrio La Paz","08",NA,1.63724,-75.61373
"659686","co","barrio las acacias","Barrio Las Acacias","08",NA,1.628722,-75.601593
"659687","co","barrio las americas","Barrio Las Americas","08",NA,1.629504,-75.603532
"659688","co","barrio las avenidas","Barrio Las Avenidas","08",NA,1.610725,-75.605277
"659689","co","barrio las brisas bajas","Barrio Las Brisas Bajas","08",NA,1.60481,-75.595748
"659690","co","barrio las brisas","Barrio Las Brisas","08",NA,1.607591,-75.59806
"659691","co","barrio las palmeras","Barrio Las Palmeras","08",NA,1.620704,-75.591872
"659692","co","barrio las torres","Barrio Las Torres","08",NA,1.610562,-75.615374
"659693","co","barrio la union","Barrio La Unión","29",NA,3.408822,-76.514953
"659694","co","barrio la vega","Barrio La Vega","08",NA,1.61459,-75.620256
"659695","co","barrio lenin","Barrio Lenin","08",NA,1.612236,-75.61699
"659696","co","barrio los alamos","Barrio Los Alamos","29",NA,3.485191,-76.507321
"659697","co","barrio los alpes","Barrio Los Alpes","08",NA,1.624672,-75.605279
"659698","co","barrio los andes malvinas","Barrio Los Andes Malvinas","08",NA,1.614263,-75.596025
"659699","co","barrio los colcheros","Barrio Los Colcheros","08",NA,1.619288,-75.593215
"659700","co","barrio los comuneros","Barrio Los Comuneros","08",NA,1.615347,-75.605744
"659701","co","barrio los molinos","Barrio Los Molinos","08",NA,1.599389,-75.586542
"659702","co","barrio los pinos","Barrio Los Pinos","08",NA,1.632548,-75.606459
"659703","co","barrio los transportadores","Barrio Los Transportadores","08",NA,1.604982,-75.599084
"659704","co","barrio manzanares","Barrio Manzanares","38",NA,11.233333,-74.216667
"659705","co","barrio melendez","Barrio Meléndez","29",NA,3.394157,-76.553876
"659706","co","barrio minuto de dios alto","Barrio Minuto de Dios Alto","08",NA,1.618231,-75.59215
"659707","co","barrio minuto de dios","Barrio Minuto de Dios","08",NA,1.61853,-75.593658
"659708","co","barrio monserrate","Barrio Monserrate","08",NA,1.607339,-75.596535
"659709","co","barrio norte","Barrio Norte","38",NA,11.25,-74.216667
"659710","co","barrio nuevo horizonte","Barrio Nuevo Horizonte","08",NA,1.601834,-75.598857
"659711","co","barrio obrero","Barrio Obrero","08",NA,1.604616,-75.606291
"659712","co","barrio obrero","Barrio Obrero","20",NA,0.833056,-77.639167
"659713","co","barrio obrero","Barrio Obrero","38",NA,11.25,-74.2
"659714","co","barrio pablo vi","Barrio Pablo VI","08",NA,1.619487,-75.602591
"659715","co","barrio pescadito","Barrio Pescadito","38",NA,11.266667,-74.2
"659716","co","barrio prieto","Barrio Prieto","12",NA,8.833733,-75.576292
"659717","co","barrio primavera malvinas","Barrio Primavera Malvinas","08",NA,1.61282,-75.603543
"659718","co","barrio pueblo nuevo","Barrio Pueblo Nuevo","08",NA,1.607949,-75.601275
"659719","co","barrio raicero","Barrio Raicero","08",NA,1.616679,-75.608217
"659720","co","barrio ricaurte","Barrio Ricaurte","08",NA,1.622987,-75.613655
"659721","co","barrio rodrigo turbay malvinas","Barrio Rodrigo Turbay Malvinas","08",NA,1.616208,-75.597339
"659722","co","barrio san judas tadeo alto","Barrio San Judas Tadeo Alto","08",NA,1.618424,-75.607512
"659723","co","barrio san judas tadeo bajo","Barrio San Judas Tadeo Bajo","08",NA,1.61956,-75.607421
"659724","co","barrio san judas tadeo","Barrio San Judas Tadeo","29",NA,3.409871,-76.524811
"659725","co","barrio san luis","Barrio San Luis","08",NA,1.603128,-75.604122
